{
  "LUH": {
    "code": "LUH",
    "name": "Sahnewal",
    "coordinates": {
      "lat": 30.850359856170176,
      "long": 75.95707224036518
    }
  },
  "SSE": {
    "code": "SSE",
    "name": "Solapur",
    "coordinates": {
      "lat": 17.625415183635024,
      "long": 75.93305977107549
    }
  },
  "IXR": {
    "code": "IXR",
    "name": "Birsa Munda",
    "coordinates": {
      "lat": 23.317724598996193,
      "long": 85.3235970368767
    }
  },
  "AWZ": {
    "code": "AWZ",
    "name": "Ahwaz",
    "coordinates": {
      "lat": 31.343158556075725,
      "long": 48.74710654359313
    }
  },
  "GWL": {
    "code": "GWL",
    "name": "Gwalior",
    "coordinates": {
      "lat": 26.28548769793701,
      "long": 78.21721865463483
    }
  },
  "HOD": {
    "code": "HOD",
    "name": "Hodeidah Int'l",
    "coordinates": {
      "lat": 14.755253441372462,
      "long": 42.97109630194003
    }
  },
  "IDR": {
    "code": "IDR",
    "name": "Devi Ahilyabai Holkar Int'l",
    "coordinates": {
      "lat": 22.72774918757095,
      "long": 75.8092915005895
    }
  },
  "ISK": {
    "code": "ISK",
    "name": "Gandhinagar",
    "coordinates": {
      "lat": 19.966020567280626,
      "long": 73.81056749246886
    }
  },
  "IXC": {
    "code": "IXC",
    "name": "Chandigarh Int'l",
    "coordinates": {
      "lat": 30.670724894966725,
      "long": 76.80172611052417
    }
  },
  "IXU": {
    "code": "IXU",
    "name": "Aurangabad",
    "coordinates": {
      "lat": 19.867296962108234,
      "long": 75.39584329220051
    }
  },
  "LYP": {
    "code": "LYP",
    "name": "Faisalabad Int'l",
    "coordinates": {
      "lat": 31.362743548086222,
      "long": 72.9878190922305
    }
  },
  "OMS": {
    "code": "OMS",
    "name": "Omsk Tsentralny",
    "coordinates": {
      "lat": 54.95764829340594,
      "long": 73.3163595376585
    }
  },
  "OVB": {
    "code": "OVB",
    "name": "Novosibirsk Tolmachev",
    "coordinates": {
      "lat": 55.00958471362636,
      "long": 82.66715245258652
    }
  },
  "OZH": {
    "code": "OZH",
    "name": "Zaporozhye Int'l",
    "coordinates": {
      "lat": 47.873263557902284,
      "long": 35.30187285752786
    }
  },
  "PKU": {
    "code": "PKU",
    "name": "Simpang Tiga",
    "coordinates": {
      "lat": 0.464600872998505,
      "long": 101.44656929844086
    }
  },
  "ROP": {
    "code": "ROP",
    "name": "Rota Int'l",
    "coordinates": {
      "lat": 14.171771297121616,
      "long": 145.24398029858185
    }
  },
  "SGC": {
    "code": "SGC",
    "name": "Surgut",
    "coordinates": {
      "lat": 61.340167219448126,
      "long": 73.40849647643748
    }
  },
  "TRZ": {
    "code": "TRZ",
    "name": "Tiruchirappalli",
    "coordinates": {
      "lat": 10.76035713065535,
      "long": 78.7089578747476
    }
  },
  "TUK": {
    "code": "TUK",
    "name": "Turbat Int'l",
    "coordinates": {
      "lat": 25.988794590011004,
      "long": 63.027933351918136
    }
  },
  "UET": {
    "code": "UET",
    "name": "Quetta Int'l",
    "coordinates": {
      "lat": 30.249043186181034,
      "long": 66.94873114809494
    }
  },
  "ZAH": {
    "code": "ZAH",
    "name": "Zahedan Int'l",
    "coordinates": {
      "lat": 29.475294195657344,
      "long": 60.90070856491495
    }
  },
  "MLG": {
    "code": "MLG",
    "name": "Abdul Rachman Saleh",
    "coordinates": {
      "lat": -7.929980028405668,
      "long": 112.71141861725775
    }
  },
  "BAX": {
    "code": "BAX",
    "name": "Barnaul",
    "coordinates": {
      "lat": 53.3633850813046,
      "long": 83.55045321240377
    }
  },
  "VIAX": {
    "code": "VIAX",
    "name": "Adampur",
    "coordinates": {
      "lat": 31.43294223977149,
      "long": 75.75848284560045
    }
  },
  "VIBY": {
    "code": "VIBY",
    "name": "Bareilly",
    "coordinates": {
      "lat": 28.421808716114356,
      "long": 79.45200268765704
    }
  },
  "OPQS": {
    "code": "OPQS",
    "name": "Dhamial",
    "coordinates": {
      "lat": 33.56141462788605,
      "long": 73.03204983920023
    }
  },
  "CJJ": {
    "code": "CJJ",
    "name": "Cheongju Int'l",
    "coordinates": {
      "lat": 36.72202277666726,
      "long": 127.49591612468085
    }
  },
  "KWJ": {
    "code": "KWJ",
    "name": "Gwangju",
    "coordinates": {
      "lat": 35.14000513901977,
      "long": 126.81083948122644
    }
  },
  "TAE": {
    "code": "TAE",
    "name": "Daegu Int'l",
    "coordinates": {
      "lat": 35.89992779690866,
      "long": 128.63753769993312
    }
  },
  "USN": {
    "code": "USN",
    "name": "Ulsan",
    "coordinates": {
      "lat": 35.59289575271069,
      "long": 129.35573104752825
    }
  },
  "TKG": {
    "code": "TKG",
    "name": "Radin Inten II",
    "coordinates": {
      "lat": -5.242566777131995,
      "long": 105.17606041916142
    }
  },
  "IXD": {
    "code": "IXD",
    "name": "Allahabad",
    "coordinates": {
      "lat": 25.443522027820965,
      "long": 81.73172714621872
    }
  },
  "CEK": {
    "code": "CEK",
    "name": "Chelyabinsk",
    "coordinates": {
      "lat": 55.29779194960553,
      "long": 61.51225897402009
    }
  },
  "TNN": {
    "code": "TNN",
    "name": "Tainan",
    "coordinates": {
      "lat": 22.950667918346994,
      "long": 120.20973331809326
    }
  },
  "RMQ": {
    "code": "RMQ",
    "name": "Taichung",
    "coordinates": {
      "lat": 24.26665555671146,
      "long": 120.63070354758395
    }
  },
  "RTM": {
    "code": "RTM",
    "name": "Rotterdam The Hague",
    "coordinates": {
      "lat": 51.94913018993815,
      "long": 4.433844349628765
    }
  },
  "VOZ": {
    "code": "VOZ",
    "name": "Voronezh-Chertovitskoye",
    "coordinates": {
      "lat": 51.81261712683441,
      "long": 39.22544964479734
    }
  },
  "LPL": {
    "code": "LPL",
    "name": "Liverpool John Lennon",
    "coordinates": {
      "lat": 53.336375105442215,
      "long": -2.858620657849379
    }
  },
  "VTZ": {
    "code": "VTZ",
    "name": "Vishakapatnam",
    "coordinates": {
      "lat": 17.7279577384364,
      "long": 83.2235216387465
    }
  },
  "UPG": {
    "code": "UPG",
    "name": "Sultan Hasanuddin Int'l",
    "coordinates": {
      "lat": -5.058936894557788,
      "long": 119.54569134215063
    }
  },
  "VAV": {
    "code": "VAV",
    "name": "Vava'u Int'l",
    "coordinates": {
      "lat": -18.586005855065373,
      "long": -173.96809394415877
    }
  },
  "NCL": {
    "code": "NCL",
    "name": "Newcastle Int'l",
    "coordinates": {
      "lat": 55.037084860801954,
      "long": -1.71034578407216
    }
  },
  "LCE": {
    "code": "LCE",
    "name": "Goloson Int'l",
    "coordinates": {
      "lat": 15.74515966591258,
      "long": -86.8514685020011
    }
  },
  "MED": {
    "code": "MED",
    "name": "Madinah Int'l",
    "coordinates": {
      "lat": 24.54423396056608,
      "long": 39.69913595604174
    }
  },
  "YMX": {
    "code": "YMX",
    "name": "Mirabel Int'l",
    "coordinates": {
      "lat": 45.68322509792671,
      "long": -74.02873829848139
    }
  },
  "PLQ": {
    "code": "PLQ",
    "name": "Palanga Int'l",
    "coordinates": {
      "lat": 55.971342623535804,
      "long": 21.09744639862514
    }
  },
  "JAI": {
    "code": "JAI",
    "name": "Jaipur Int'l",
    "coordinates": {
      "lat": 26.821179810060464,
      "long": 75.80101041926682
    }
  },
  "IXW": {
    "code": "IXW",
    "name": "Sonari",
    "coordinates": {
      "lat": 22.815414511024233,
      "long": 86.17246623637757
    }
  },
  "YEI": {
    "code": "YEI",
    "name": "Yenisehir",
    "coordinates": {
      "lat": 40.255539500747304,
      "long": 29.54492
    }
  },
  "ADA": {
    "code": "ADA",
    "name": "Sakirpasa",
    "coordinates": {
      "lat": 36.9852090641795,
      "long": 35.29696142683381
    }
  },
  "ADQ": {
    "code": "ADQ",
    "name": "Kodiak",
    "coordinates": {
      "lat": 57.74859210704827,
      "long": -152.4856385152345
    }
  },
  "AMA": {
    "code": "AMA",
    "name": "Amarillo Int'l",
    "coordinates": {
      "lat": 35.218403191939814,
      "long": -101.70535277269678
    }
  },
  "ASP": {
    "code": "ASP",
    "name": "Alice Springs",
    "coordinates": {
      "lat": -23.801968,
      "long": 133.902918
    }
  },
  "ATQ": {
    "code": "ATQ",
    "name": "Raja Sansi Int'l",
    "coordinates": {
      "lat": 31.706822025888847,
      "long": 74.80715597198244
    }
  },
  "BBI": {
    "code": "BBI",
    "name": "Biju Patnaik",
    "coordinates": {
      "lat": 20.252665975473413,
      "long": 85.81688995444293
    }
  },
  "BET": {
    "code": "BET",
    "name": "Bethel",
    "coordinates": {
      "lat": 60.77873798340883,
      "long": -161.8389869594397
    }
  },
  "BGA": {
    "code": "BGA",
    "name": "Palonegro",
    "coordinates": {
      "lat": 7.127709154026846,
      "long": -73.18092077253607
    }
  },
  "BHM": {
    "code": "BHM",
    "name": "Birmingham Int'l",
    "coordinates": {
      "lat": 33.56186728280577,
      "long": -86.75237736154624
    }
  },
  "BHQ": {
    "code": "BHQ",
    "name": "Broken Hill",
    "coordinates": {
      "lat": -31.998996737463017,
      "long": 141.47040730309726
    }
  },
  "BIL": {
    "code": "BIL",
    "name": "Logan Int'l",
    "coordinates": {
      "lat": 45.803685571527836,
      "long": -108.53692938812462
    }
  },
  "BIS": {
    "code": "BIS",
    "name": "Bismarck Muni.",
    "coordinates": {
      "lat": 46.77510666616138,
      "long": -100.75747130371745
    }
  },
  "BJX": {
    "code": "BJX",
    "name": "Del Bajio Int'l",
    "coordinates": {
      "lat": 20.98588712119381,
      "long": -101.47875338246688
    }
  },
  "BNI": {
    "code": "BNI",
    "name": "Benin",
    "coordinates": {
      "lat": 6.317166892078184,
      "long": 5.603682560067004
    }
  },
  "BOJ": {
    "code": "BOJ",
    "name": "Bourgas",
    "coordinates": {
      "lat": 42.56708354877019,
      "long": 27.51640936629526
    }
  },
  "BRE": {
    "code": "BRE",
    "name": "Bremen",
    "coordinates": {
      "lat": 53.052287104156015,
      "long": 8.7858617703132
    }
  },
  "BRM": {
    "code": "BRM",
    "name": "Jacinto Lara Int'l",
    "coordinates": {
      "lat": 10.0453,
      "long": -69.356102
    }
  },
  "BRO": {
    "code": "BRO",
    "name": "Brownsville-South Padre Island Int'l",
    "coordinates": {
      "lat": 25.906274354534673,
      "long": -97.43176534023202
    }
  },
  "BRS": {
    "code": "BRS",
    "name": "Bristol Int'l",
    "coordinates": {
      "lat": 51.38629341891484,
      "long": -2.710864691343085
    }
  },
  "BTR": {
    "code": "BTR",
    "name": "Baton Rouge Metro",
    "coordinates": {
      "lat": 30.532613804058556,
      "long": -91.15675440481048
    }
  },
  "BTS": {
    "code": "BTS",
    "name": "Bratislava-M.R. Stefanik",
    "coordinates": {
      "lat": 48.16983790625349,
      "long": 17.19998500222079
    }
  },
  "BTV": {
    "code": "BTV",
    "name": "Burlington Int'l",
    "coordinates": {
      "lat": 44.469206604073214,
      "long": -73.15507877906677
    }
  },
  "CAE": {
    "code": "CAE",
    "name": "Columbia Metro",
    "coordinates": {
      "lat": 33.934205458427535,
      "long": -81.10933524293772
    }
  },
  "CCJ": {
    "code": "CCJ",
    "name": "Calicut Int'l",
    "coordinates": {
      "lat": 11.1395520526064,
      "long": 75.95099306305104
    }
  },
  "CCK": {
    "code": "CCK",
    "name": "Cocos (Keeling) Islands",
    "coordinates": {
      "lat": -12.185158595329305,
      "long": 96.82874721442073
    }
  },
  "CFU": {
    "code": "CFU",
    "name": "Corfu Int'l (Ioannis Kapodistrias)",
    "coordinates": {
      "lat": 39.60675545052586,
      "long": 19.914756164166214
    }
  },
  "CGQ": {
    "code": "CGQ",
    "name": "Changchun Longjia Int'l",
    "coordinates": {
      "lat": 43.99301147957697,
      "long": 125.69045681299836
    }
  },
  "CHS": {
    "code": "CHS",
    "name": "Charleston Int'l",
    "coordinates": {
      "lat": 32.884530156296464,
      "long": -80.03693374382624
    }
  },
  "CJB": {
    "code": "CJB",
    "name": "Coimbatore",
    "coordinates": {
      "lat": 11.030141512598268,
      "long": 77.03889377226204
    }
  },
  "CLJ": {
    "code": "CLJ",
    "name": "Someseni",
    "coordinates": {
      "lat": 46.78266263402428,
      "long": 23.68698126804856
    }
  },
  "CMW": {
    "code": "CMW",
    "name": "Ignacio Agramonte",
    "coordinates": {
      "lat": 21.424703728196057,
      "long": -77.84510399351666
    }
  },
  "CPR": {
    "code": "CPR",
    "name": "Casper/Natrona County Int'l",
    "coordinates": {
      "lat": 42.89719004830057,
      "long": -106.46444480969178
    }
  },
  "CRK": {
    "code": "CRK",
    "name": "Clark Int'l",
    "coordinates": {
      "lat": 15.187642242388833,
      "long": 120.55077022391397
    }
  },
  "CRW": {
    "code": "CRW",
    "name": "Yeager",
    "coordinates": {
      "lat": 38.37059143728646,
      "long": -81.5964164667526
    }
  },
  "CTA": {
    "code": "CTA",
    "name": "Catania Fontanarossa",
    "coordinates": {
      "lat": 37.470072800341015,
      "long": 15.067460500705343
    }
  },
  "CTM": {
    "code": "CTM",
    "name": "Chetumal Int'l",
    "coordinates": {
      "lat": 18.506434233376005,
      "long": -88.3242600415365
    }
  },
  "CWL": {
    "code": "CWL",
    "name": "Cardiff",
    "coordinates": {
      "lat": 51.39862209110174,
      "long": -3.339568764291176
    }
  },
  "CYB": {
    "code": "CYB",
    "name": "Gerrard Smith",
    "coordinates": {
      "lat": 19.68986539628435,
      "long": -79.87946163800297
    }
  },
  "CZM": {
    "code": "CZM",
    "name": "Cozumel Int'l",
    "coordinates": {
      "lat": 20.51155437716472,
      "long": -86.93040640704362
    }
  },
  "DAY": {
    "code": "DAY",
    "name": "James M. Cox Dayton Int'l",
    "coordinates": {
      "lat": 39.8990402865362,
      "long": -84.22045942381024
    }
  },
  "DBO": {
    "code": "DBO",
    "name": "Dubbo",
    "coordinates": {
      "lat": -32.218681,
      "long": 148.569717
    }
  },
  "DCA": {
    "code": "DCA",
    "name": "Washington Nat'l",
    "coordinates": {
      "lat": 38.853716201212265,
      "long": -77.04333739256312
    }
  },
  "DGO": {
    "code": "DGO",
    "name": "Durango Int'l",
    "coordinates": {
      "lat": 24.12619483261825,
      "long": -104.53384602496385
    }
  },
  "DNK": {
    "code": "DNK",
    "name": "Voloskoye",
    "coordinates": {
      "lat": 48.36757180211169,
      "long": 35.09390602249747
    }
  },
  "DOK": {
    "code": "DOK",
    "name": "Donetsk",
    "coordinates": {
      "lat": 48.06916712855819,
      "long": 37.744808557210334
    }
  },
  "DZO": {
    "code": "DZO",
    "name": "Santa Bernardina Int'l",
    "coordinates": {
      "lat": -33.35910844755007,
      "long": -56.49926362137442
    }
  },
  "EDI": {
    "code": "EDI",
    "name": "Edinburgh Int'l",
    "coordinates": {
      "lat": 55.9485540113639,
      "long": -3.364284685135545
    }
  },
  "EIS": {
    "code": "EIS",
    "name": "Terrance B. Lettsome Int'l",
    "coordinates": {
      "lat": 18.444361855798306,
      "long": -64.53715143657945
    }
  },
  "EKO": {
    "code": "EKO",
    "name": "Elko Reg.",
    "coordinates": {
      "lat": 40.82760588152249,
      "long": -115.78647923224912
    }
  },
  "ESE": {
    "code": "ESE",
    "name": "Ensenada",
    "coordinates": {
      "lat": 31.797713976056865,
      "long": -116.59572440041782
    }
  },
  "FAE": {
    "code": "FAE",
    "name": "Vagar",
    "coordinates": {
      "lat": 62.0625,
      "long": -7.2708
    }
  },
  "FAR": {
    "code": "FAR",
    "name": "Hector Int'l",
    "coordinates": {
      "lat": 46.919817881132275,
      "long": -96.8254561269675
    }
  },
  "FAT": {
    "code": "FAT",
    "name": "Fresno Yosemite Int'l",
    "coordinates": {
      "lat": 36.76981283739594,
      "long": -119.72000132357581
    }
  },
  "FLG": {
    "code": "FLG",
    "name": "Flagstaff Pulliam",
    "coordinates": {
      "lat": 35.13891167579759,
      "long": -111.6746561716751
    }
  },
  "FRS": {
    "code": "FRS",
    "name": "Mundo Maya Int'l",
    "coordinates": {
      "lat": 16.914974164222567,
      "long": -89.87784042265082
    }
  },
  "FSD": {
    "code": "FSD",
    "name": "Sioux Falls Reg.",
    "coordinates": {
      "lat": 43.58019349727632,
      "long": -96.73138310175408
    }
  },
  "GEG": {
    "code": "GEG",
    "name": "Spokane Int'l",
    "coordinates": {
      "lat": 47.62547812783678,
      "long": -117.53683662858516
    }
  },
  "GGT": {
    "code": "GGT",
    "name": "Exuma Int'l",
    "coordinates": {
      "lat": 23.56388290692585,
      "long": -75.87261308530395
    }
  },
  "GIB": {
    "code": "GIB",
    "name": "Gibraltar",
    "coordinates": {
      "lat": 36.15127475041734,
      "long": -5.346771800333878
    }
  },
  "GRR": {
    "code": "GRR",
    "name": "Gerald R. Ford Int'l",
    "coordinates": {
      "lat": 42.88477760209079,
      "long": -85.52957320727401
    }
  },
  "GSO": {
    "code": "GSO",
    "name": "Triad Int'l",
    "coordinates": {
      "lat": 36.105378199893245,
      "long": -79.93648675774836
    }
  },
  "GTF": {
    "code": "GTF",
    "name": "Great Falls Int'l",
    "coordinates": {
      "lat": 47.482270729263035,
      "long": -111.35668472784
    }
  },
  "GZT": {
    "code": "GZT",
    "name": "Gaziantep Oguzeli Int'l",
    "coordinates": {
      "lat": 36.945363344687536,
      "long": 37.473803252189995
    }
  },
  "HBX": {
    "code": "HBX",
    "name": "Hubli",
    "coordinates": {
      "lat": 15.359183338622918,
      "long": 75.08631556802813
    }
  },
  "HDY": {
    "code": "HDY",
    "name": "Hat Yai Int'l",
    "coordinates": {
      "lat": 6.93634231940664,
      "long": 100.39375127467132
    }
  },
  "HFE": {
    "code": "HFE",
    "name": "Hefei-Luogang",
    "coordinates": {
      "lat": 31.77985767957784,
      "long": 117.30419701588772
    }
  },
  "HRG": {
    "code": "HRG",
    "name": "Hurghada Int'l",
    "coordinates": {
      "lat": 27.18042609181859,
      "long": 33.807160641411784
    }
  },
  "HRK": {
    "code": "HRK",
    "name": "Kharkov Int'l",
    "coordinates": {
      "lat": 49.92153606315507,
      "long": 36.28220107735029
    }
  },
  "HSV": {
    "code": "HSV",
    "name": "Huntsville Int'l",
    "coordinates": {
      "lat": 34.648334460931935,
      "long": -86.77494305633734
    }
  },
  "IBA": {
    "code": "IBA",
    "name": "Ibadan",
    "coordinates": {
      "lat": 7.360343972693927,
      "long": 3.973813343322902
    }
  },
  "ICT": {
    "code": "ICT",
    "name": "Kansas City Int'l",
    "coordinates": {
      "lat": 37.6529279603903,
      "long": -97.4287387683976
    }
  },
  "ILM": {
    "code": "ILM",
    "name": "Wilmington Int'l",
    "coordinates": {
      "lat": 34.266784067199566,
      "long": -77.91037565604692
    }
  },
  "ILR": {
    "code": "ILR",
    "name": "Ilorin Int'l",
    "coordinates": {
      "lat": 8.435376519352406,
      "long": 4.494840388199345
    }
  },
  "INL": {
    "code": "INL",
    "name": "Falls Int'l",
    "coordinates": {
      "lat": 48.56599308484143,
      "long": -93.39800275527939
    }
  },
  "INV": {
    "code": "INV",
    "name": "Inverness",
    "coordinates": {
      "lat": 57.53950029234238,
      "long": -4.063591755871405
    }
  },
  "IPL": {
    "code": "IPL",
    "name": "Imperial Cty.",
    "coordinates": {
      "lat": 32.8339586685524,
      "long": -115.57199556657955
    }
  },
  "IXJ": {
    "code": "IXJ",
    "name": "Jammu",
    "coordinates": {
      "lat": 32.68104288862249,
      "long": 74.8423077638915
    }
  },
  "IXM": {
    "code": "IXM",
    "name": "Madurai",
    "coordinates": {
      "lat": 9.837186278775658,
      "long": 78.09113949371941
    }
  },
  "JDH": {
    "code": "JDH",
    "name": "Jodhpur",
    "coordinates": {
      "lat": 26.26376234583514,
      "long": 73.05054918956712
    }
  },
  "JLR": {
    "code": "JLR",
    "name": "Jabalpur",
    "coordinates": {
      "lat": 23.1845328746465,
      "long": 80.0587438885277
    }
  },
  "JRO": {
    "code": "JRO",
    "name": "Kilimanjaro Int'l",
    "coordinates": {
      "lat": -3.424444959981779,
      "long": 37.06518960677478
    }
  },
  "KAD": {
    "code": "KAD",
    "name": "Kaduna",
    "coordinates": {
      "lat": 10.694619286239067,
      "long": 7.325253474074343
    }
  },
  "KGA": {
    "code": "KGA",
    "name": "Kananga",
    "coordinates": {
      "lat": -5.900166562270409,
      "long": 22.47833324826895
    }
  },
  "KMS": {
    "code": "KMS",
    "name": "Kumasi",
    "coordinates": {
      "lat": 6.714606387503645,
      "long": -1.592575265823615
    }
  },
  "KNA": {
    "code": "KNA",
    "name": "Vina del Mar",
    "coordinates": {
      "lat": -32.94839176513599,
      "long": -71.4806025354969
    }
  },
  "KNU": {
    "code": "KNU",
    "name": "Kanpur",
    "coordinates": {
      "lat": 26.43883344670418,
      "long": 80.36753387720022
    }
  },
  "KOA": {
    "code": "KOA",
    "name": "Kona Int'l at Keahole",
    "coordinates": {
      "lat": 19.737099139944235,
      "long": -156.04088947105768
    }
  },
  "KOI": {
    "code": "KOI",
    "name": "Kirkwall",
    "coordinates": {
      "lat": 58.95442887883035,
      "long": -2.901378495245077
    }
  },
  "KTU": {
    "code": "KTU",
    "name": "Kota",
    "coordinates": {
      "lat": 25.16341871667427,
      "long": 75.85049779445515
    }
  },
  "KYA": {
    "code": "KYA",
    "name": "Konya",
    "coordinates": {
      "lat": 37.98399455316949,
      "long": 32.575673266968714
    }
  },
  "LEX": {
    "code": "LEX",
    "name": "Blue Grass",
    "coordinates": {
      "lat": 38.03742731813716,
      "long": -84.59826819187857
    }
  },
  "LIH": {
    "code": "LIH",
    "name": "Lihue",
    "coordinates": {
      "lat": 21.978124316208824,
      "long": -159.34908429052206
    }
  },
  "LIT": {
    "code": "LIT",
    "name": "Little Rock National",
    "coordinates": {
      "lat": 34.728430041517875,
      "long": -92.22058813192886
    }
  },
  "LMM": {
    "code": "LMM",
    "name": "Los Mochis",
    "coordinates": {
      "lat": 25.68850882609902,
      "long": -109.08269464526103
    }
  },
  "LOV": {
    "code": "LOV",
    "name": "Venustiano Carranza Int'l",
    "coordinates": {
      "lat": 26.955392716069884,
      "long": -101.46496003175058
    }
  },
  "LRD": {
    "code": "LRD",
    "name": "Laredo Int'l",
    "coordinates": {
      "lat": 27.54366571758247,
      "long": -99.45566039765133
    }
  },
  "LSI": {
    "code": "LSI",
    "name": "Sumburgh",
    "coordinates": {
      "lat": 59.87668995989993,
      "long": -1.288060688387535
    }
  },
  "LTK": {
    "code": "LTK",
    "name": "Bassel Al-Assad Int'l",
    "coordinates": {
      "lat": 35.407311459674354,
      "long": 35.944240709666296
    }
  },
  "LTN": {
    "code": "LTN",
    "name": "London Luton",
    "coordinates": {
      "lat": 51.8802952570969,
      "long": -0.376227267397439
    }
  },
  "LYR": {
    "code": "LYR",
    "name": "Svalbard Longyear",
    "coordinates": {
      "lat": 78.246717,
      "long": 15.495229
    }
  },
  "MBJ": {
    "code": "MBJ",
    "name": "Sangster Int'l",
    "coordinates": {
      "lat": 18.501154929824885,
      "long": -77.91839076357516
    }
  },
  "MDL": {
    "code": "MDL",
    "name": "Mandalay Int'l",
    "coordinates": {
      "lat": 21.705549068027405,
      "long": 95.97065359502169
    }
  },
  "MDW": {
    "code": "MDW",
    "name": "Chicago Midway Int'l",
    "coordinates": {
      "lat": 41.78834925974092,
      "long": -87.74212668856121
    }
  },
  "MEC": {
    "code": "MEC",
    "name": "Eloy Alfaro Int'l",
    "coordinates": {
      "lat": -0.949557002112883,
      "long": -80.68338459957742
    }
  },
  "MGM": {
    "code": "MGM",
    "name": "Montgomery Reg.",
    "coordinates": {
      "lat": 32.304587990963064,
      "long": -86.39030746026862
    }
  },
  "MHT": {
    "code": "MHT",
    "name": "Manchester-Boston Reg.",
    "coordinates": {
      "lat": 42.92791399458855,
      "long": -71.43752390918567
    }
  },
  "MIU": {
    "code": "MIU",
    "name": "Maiduguri Int'l",
    "coordinates": {
      "lat": 11.853471318852687,
      "long": 13.085139016247085
    }
  },
  "MJM": {
    "code": "MJM",
    "name": "Mbuji Mayi",
    "coordinates": {
      "lat": -6.124845413488115,
      "long": 23.572109198905228
    }
  },
  "MOT": {
    "code": "MOT",
    "name": "Minot Int'l",
    "coordinates": {
      "lat": 48.25560492128391,
      "long": -101.29138553129988
    }
  },
  "MSO": {
    "code": "MSO",
    "name": "Missoula Int'l",
    "coordinates": {
      "lat": 46.91876047688307,
      "long": -114.08369492365063
    }
  },
  "MXL": {
    "code": "MXL",
    "name": "Gen R.S. Taboada Int'l",
    "coordinates": {
      "lat": 32.628564332460684,
      "long": -115.24787404784124
    }
  },
  "MXP": {
    "code": "MXP",
    "name": "Malpensa",
    "coordinates": {
      "lat": 45.62744051403809,
      "long": 8.712959535024368
    }
  },
  "NLK": {
    "code": "NLK",
    "name": "Norfolk Island",
    "coordinates": {
      "lat": -29.035159255527493,
      "long": 167.94339411620473
    }
  },
  "NUE": {
    "code": "NUE",
    "name": "Nurnberg",
    "coordinates": {
      "lat": 49.49450521703445,
      "long": 11.077417973909556
    }
  },
  "ODS": {
    "code": "ODS",
    "name": "Odessa Int'l",
    "coordinates": {
      "lat": 46.44062687591064,
      "long": 30.676830831020588
    }
  },
  "OOL": {
    "code": "OOL",
    "name": "Gold Coast",
    "coordinates": {
      "lat": -28.166516854020163,
      "long": 153.5128762643033
    }
  },
  "ORN": {
    "code": "ORN",
    "name": "Oran Es Senia",
    "coordinates": {
      "lat": 35.62027473127345,
      "long": -0.60679696443112
    }
  },
  "PAT": {
    "code": "PAT",
    "name": "Lok Nayak Jaiprakash",
    "coordinates": {
      "lat": 25.594443429560453,
      "long": 85.09090213146632
    }
  },
  "PDU": {
    "code": "PDU",
    "name": "Paysandu",
    "coordinates": {
      "lat": -32.36145452927226,
      "long": -58.0685346825257
    }
  },
  "PFO": {
    "code": "PFO",
    "name": "Paphos Int'l",
    "coordinates": {
      "lat": 34.71340128173351,
      "long": 32.483232206492644
    }
  },
  "PLM": {
    "code": "PLM",
    "name": "Sultan Mahmud Badaruddin II",
    "coordinates": {
      "lat": -2.899993450059967,
      "long": 104.69912832676162
    }
  },
  "PTG": {
    "code": "PTG",
    "name": "Polokwane Int'l",
    "coordinates": {
      "lat": -23.858986270165953,
      "long": 29.45334036456435
    }
  },
  "PUJ": {
    "code": "PUJ",
    "name": "Punta Cana",
    "coordinates": {
      "lat": 18.56303903398704,
      "long": -68.3632351074649
    }
  },
  "QRO": {
    "code": "QRO",
    "name": "Queretaro Int'l",
    "coordinates": {
      "lat": 20.62246607127796,
      "long": -100.18735943002979
    }
  },
  "RAJ": {
    "code": "RAJ",
    "name": "Rajkot",
    "coordinates": {
      "lat": 22.309281698836052,
      "long": 70.7799548311565
    }
  },
  "RIC": {
    "code": "RIC",
    "name": "Richmond Int'l",
    "coordinates": {
      "lat": 37.50828997509012,
      "long": -77.33311963811302
    }
  },
  "RJH": {
    "code": "RJH",
    "name": "Shah Makhdum",
    "coordinates": {
      "lat": 24.44480686230351,
      "long": 88.61380457044305
    }
  },
  "ROC": {
    "code": "ROC",
    "name": "Greater Rochester Int'l",
    "coordinates": {
      "lat": 43.127551982648235,
      "long": -77.66524450621966
    }
  },
  "ROK": {
    "code": "ROK",
    "name": "Rockhampton",
    "coordinates": {
      "lat": -23.378599,
      "long": 150.478897
    }
  },
  "ROV": {
    "code": "ROV",
    "name": "Rostov-on-Don",
    "coordinates": {
      "lat": 47.255111951975394,
      "long": 39.80351444453908
    }
  },
  "RTW": {
    "code": "RTW",
    "name": "Saratov",
    "coordinates": {
      "lat": 51.560645650884204,
      "long": 46.03502324989101
    }
  },
  "SAP": {
    "code": "SAP",
    "name": "Ramon Villeda Morales Int'l",
    "coordinates": {
      "lat": 15.455863052488276,
      "long": -87.92723651254093
    }
  },
  "SBA": {
    "code": "SBA",
    "name": "Santa Barbara Muni.",
    "coordinates": {
      "lat": 34.42573129787832,
      "long": -119.83660158079981
    }
  },
  "SCC": {
    "code": "SCC",
    "name": "Deadhorse",
    "coordinates": {
      "lat": 70.19751,
      "long": -148.457855
    }
  },
  "SFJ": {
    "code": "SFJ",
    "name": "Kangerlussuaq",
    "coordinates": {
      "lat": 67.018097,
      "long": -50.694199
    }
  },
  "SGF": {
    "code": "SGF",
    "name": "Springfield Reg.",
    "coordinates": {
      "lat": 37.24214449030243,
      "long": -93.3826379012003
    }
  },
  "SHV": {
    "code": "SHV",
    "name": "Shreveport Reg.",
    "coordinates": {
      "lat": 32.45457988665127,
      "long": -93.82852222295027
    }
  },
  "SIP": {
    "code": "SIP",
    "name": "Simferopol Int'l",
    "coordinates": {
      "lat": 45.020217397816495,
      "long": 33.99605292445367
    }
  },
  "SIT": {
    "code": "SIT",
    "name": "Sitka Rocky Gutierrez",
    "coordinates": {
      "lat": 57.05349,
      "long": -135.365692
    }
  },
  "SJD": {
    "code": "SJD",
    "name": "Los Cabos Int'l",
    "coordinates": {
      "lat": 23.162657448359653,
      "long": -109.71785838690921
    }
  },
  "SLE": {
    "code": "SLE",
    "name": "McNary Field",
    "coordinates": {
      "lat": 44.91051384521425,
      "long": -123.00787147940393
    }
  },
  "SLW": {
    "code": "SLW",
    "name": "Plan de Guadalupe",
    "coordinates": {
      "lat": 25.54799764199738,
      "long": -100.93226054858748
    }
  },
  "SNN": {
    "code": "SNN",
    "name": "Shannon",
    "coordinates": {
      "lat": 52.693453710253166,
      "long": -8.922428855576857
    }
  },
  "SON": {
    "code": "SON",
    "name": "Santo Pekoa Int'l",
    "coordinates": {
      "lat": -15.505538737085832,
      "long": 167.22089491937467
    }
  },
  "SRG": {
    "code": "SRG",
    "name": "Achmad Yani",
    "coordinates": {
      "lat": -6.978734849569817,
      "long": 110.37855625566573
    }
  },
  "SXR": {
    "code": "SXR",
    "name": "Srinagar",
    "coordinates": {
      "lat": 33.98309094316232,
      "long": 74.78262436723114
    }
  },
  "TAP": {
    "code": "TAP",
    "name": "Tapachula Int'l",
    "coordinates": {
      "lat": 14.791128133877267,
      "long": -92.370003
    }
  },
  "TGD": {
    "code": "TGD",
    "name": "Podgorica",
    "coordinates": {
      "lat": 42.367933519542824,
      "long": 19.246686861887266
    }
  },
  "TLH": {
    "code": "TLH",
    "name": "Tallahassee Reg.",
    "coordinates": {
      "lat": 30.395557617693783,
      "long": -84.34499539848576
    }
  },
  "TRN": {
    "code": "TRN",
    "name": "Turin Int'l",
    "coordinates": {
      "lat": 45.19166007346417,
      "long": 7.644162303621328
    }
  },
  "TYN": {
    "code": "TYN",
    "name": "Taiyuan Wusu Int'l",
    "coordinates": {
      "lat": 37.754511779151215,
      "long": 112.62589153931525
    }
  },
  "UAK": {
    "code": "UAK",
    "name": "Narsarsuaq",
    "coordinates": {
      "lat": 61.16259683373283,
      "long": -45.41640089231083
    }
  },
  "UTP": {
    "code": "UTP",
    "name": "Rayong",
    "coordinates": {
      "lat": 12.685293091266386,
      "long": 101.00020929048034
    }
  },
  "VFA": {
    "code": "VFA",
    "name": "Victoria Falls",
    "coordinates": {
      "lat": -18.099015598368197,
      "long": 25.846767720882564
    }
  },
  "VGA": {
    "code": "VGA",
    "name": "Vijaywada",
    "coordinates": {
      "lat": 16.528642778235014,
      "long": 80.7973080000675
    }
  },
  "VNS": {
    "code": "VNS",
    "name": "Varanasi",
    "coordinates": {
      "lat": 25.449907732982243,
      "long": 82.85387419135274
    }
  },
  "VRA": {
    "code": "VRA",
    "name": "Juan Gualberto Gomez",
    "coordinates": {
      "lat": 23.039542233963147,
      "long": -81.43671038506231
    }
  },
  "VSA": {
    "code": "VSA",
    "name": "Villahermosa",
    "coordinates": {
      "lat": 17.993066011311075,
      "long": -92.81906758362618
    }
  },
  "YBR": {
    "code": "YBR",
    "name": "Brandon",
    "coordinates": {
      "lat": 49.904727941027694,
      "long": -99.94589590024634
    }
  },
  "YED": {
    "code": "YED",
    "name": "CFB Edmonton",
    "coordinates": {
      "lat": 53.67491566186677,
      "long": -113.47883905449686
    }
  },
  "YFB": {
    "code": "YFB",
    "name": "Iqaluit",
    "coordinates": {
      "lat": 63.751152353780704,
      "long": -68.53672924418116
    }
  },
  "YHM": {
    "code": "YHM",
    "name": "John C. Munro Hamilton Int'l",
    "coordinates": {
      "lat": 43.16336053050961,
      "long": -79.92642309599673
    }
  },
  "YMM": {
    "code": "YMM",
    "name": "Fort McMurray",
    "coordinates": {
      "lat": 56.65631713909619,
      "long": -111.22384004661691
    }
  },
  "YNT": {
    "code": "YNT",
    "name": "Yantai",
    "coordinates": {
      "lat": 37.407704472692394,
      "long": 121.37204741777312
    }
  },
  "YPE": {
    "code": "YPE",
    "name": "Peace River",
    "coordinates": {
      "lat": 56.231924036744985,
      "long": -117.4436632080815
    }
  },
  "YQM": {
    "code": "YQM",
    "name": "Greater Moncton Int'l",
    "coordinates": {
      "lat": 46.11620596392595,
      "long": -64.68866968073613
    }
  },
  "YQY": {
    "code": "YQY",
    "name": "Sydney/J.A. Douglas McCurdy",
    "coordinates": {
      "lat": 46.16734058905036,
      "long": -60.04693721170264
    }
  },
  "YRB": {
    "code": "YRB",
    "name": "Resolute Bay",
    "coordinates": {
      "lat": 74.71818609875942,
      "long": -94.97080232440061
    }
  },
  "YSM": {
    "code": "YSM",
    "name": "Fort Smith",
    "coordinates": {
      "lat": 60.01987496024426,
      "long": -111.96105993815773
    }
  },
  "YTH": {
    "code": "YTH",
    "name": "Thompson",
    "coordinates": {
      "lat": 55.797482,
      "long": -97.860733
    }
  },
  "YTS": {
    "code": "YTS",
    "name": "Timmins",
    "coordinates": {
      "lat": 48.566158,
      "long": -81.372047
    }
  },
  "YUT": {
    "code": "YUT",
    "name": "Repulse Bay",
    "coordinates": {
      "lat": 66.533302,
      "long": -86.25
    }
  },
  "YVP": {
    "code": "YVP",
    "name": "Kuujjuaq",
    "coordinates": {
      "lat": 58.101959,
      "long": -68.433342
    }
  },
  "YWK": {
    "code": "YWK",
    "name": "Wabush",
    "coordinates": {
      "lat": 52.926071,
      "long": -66.873009
    }
  },
  "YXD": {
    "code": "YXD",
    "name": "Edmonton City Centre",
    "coordinates": {
      "lat": 53.57094365828116,
      "long": -113.52297368858079
    }
  },
  "YXJ": {
    "code": "YXJ",
    "name": "Fort St. John (N. Peace)",
    "coordinates": {
      "lat": 56.246035,
      "long": -120.736439
    }
  },
  "YYB": {
    "code": "YYB",
    "name": "North Bay/Jack Garland",
    "coordinates": {
      "lat": 46.358711,
      "long": -79.42491
    }
  },
  "ZAR": {
    "code": "ZAR",
    "name": "Zaria",
    "coordinates": {
      "lat": 11.135295860107082,
      "long": 7.687267643105769
    }
  },
  "SKP": {
    "code": "SKP",
    "name": "Skopje",
    "coordinates": {
      "lat": 41.95645460815443,
      "long": 21.62819718582291
    }
  },
  "VE23": {
    "code": "VE23",
    "name": "Burnpur",
    "coordinates": {
      "lat": 23.631217910776442,
      "long": 86.97454677657299
    }
  },
  "VIDX": {
    "code": "VIDX",
    "name": "Hindon Air Force Station",
    "coordinates": {
      "lat": 28.70779686010708,
      "long": 77.35078887791173
    }
  },
  "null": {
    "code": null,
    "name": "Rostov S.W.",
    "coordinates": {
      "lat": 47.1158577255835,
      "long": 39.797221534514875
    }
  },
  "LCJ": {
    "code": "LCJ",
    "name": "Lodz Wladyslaw Reymont",
    "coordinates": {
      "lat": 51.727207045169955,
      "long": 19.403214874403695
    }
  },
  "BXJ": {
    "code": "BXJ",
    "name": "Alma Ata N.W.",
    "coordinates": {
      "lat": 43.355419083791865,
      "long": 76.87826400966476
    }
  },
  "JMU": {
    "code": "JMU",
    "name": "Jiamusi Dongjiao",
    "coordinates": {
      "lat": 46.843015022337944,
      "long": 130.4562047044068
    }
  },
  "MDG": {
    "code": "MDG",
    "name": "Mudanjiang Hailang",
    "coordinates": {
      "lat": 44.53429362999352,
      "long": 129.5801515322203
    }
  },
  "ULMM": {
    "code": "ULMM",
    "name": "Severomorsk-3 (Murmansk N.E.)",
    "coordinates": {
      "lat": 69.0168711826804,
      "long": 33.29035276162853
    }
  },
  "OSB": {
    "code": "OSB",
    "name": "Mosul Int'l",
    "coordinates": {
      "lat": 36.308601,
      "long": 43.145802
    }
  },
  "OUL": {
    "code": "OUL",
    "name": "Oulu",
    "coordinates": {
      "lat": 64.92879923588488,
      "long": 25.372837470430696
    }
  },
  "BOD": {
    "code": "BOD",
    "name": "Bordeaux",
    "coordinates": {
      "lat": 44.832110866267385,
      "long": -0.701793449075243
    }
  },
  "CEQ": {
    "code": "CEQ",
    "name": "Mandelieu",
    "coordinates": {
      "lat": 43.54609798704497,
      "long": 6.954316120289373
    }
  },
  "DOL": {
    "code": "DOL",
    "name": "St Gatien",
    "coordinates": {
      "lat": 49.361660998660916,
      "long": 0.158653528230218
    }
  },
  "LIL": {
    "code": "LIL",
    "name": "Lille-Lesquin",
    "coordinates": {
      "lat": 50.57164239295806,
      "long": 3.105964997998135
    }
  },
  "TLS": {
    "code": "TLS",
    "name": "Toulouse-Blagnac",
    "coordinates": {
      "lat": 43.63046256616009,
      "long": 1.373509185511527
    }
  },
  "FUK": {
    "code": "FUK",
    "name": "Fukuoka",
    "coordinates": {
      "lat": 33.58481643325734,
      "long": 130.44418954188373
    }
  },
  "HIW": {
    "code": "HIW",
    "name": "Hiroshima-Nishi",
    "coordinates": {
      "lat": 34.37138156288289,
      "long": 132.419372741681
    }
  },
  "NKM": {
    "code": "NKM",
    "name": "Nagoya",
    "coordinates": {
      "lat": 35.254053205286695,
      "long": 136.9196283841399
    }
  },
  "SDJ": {
    "code": "SDJ",
    "name": "Sendai",
    "coordinates": {
      "lat": 38.138207561528674,
      "long": 140.93024738136907
    }
  },
  "KKN": {
    "code": "KKN",
    "name": "Kirkenes Hoybuktmoen",
    "coordinates": {
      "lat": 69.72383181136918,
      "long": 29.891348950040616
    }
  },
  "CGB": {
    "code": "CGB",
    "name": "Marechal Rondon Int'l",
    "coordinates": {
      "lat": -15.651147019195495,
      "long": -56.120177475472424
    }
  },
  "FLN": {
    "code": "FLN",
    "name": "Hercilio Luz Int'l",
    "coordinates": {
      "lat": -27.664627694163833,
      "long": -48.544812204959904
    }
  },
  "JOI": {
    "code": "JOI",
    "name": "Joinville-Lauro C. de Loyola",
    "coordinates": {
      "lat": -26.224294137478456,
      "long": -48.80164981656161
    }
  },
  "JPA": {
    "code": "JPA",
    "name": "Presidente Castro Pinto Int'l",
    "coordinates": {
      "lat": -7.146174624020474,
      "long": -34.9488925911125
    }
  },
  "NAT": {
    "code": "NAT",
    "name": "Augusto Severo Int'l",
    "coordinates": {
      "lat": -5.899120544771162,
      "long": -35.24884101653892
    }
  },
  "OPO": {
    "code": "OPO",
    "name": "Francisco Sa Carneiro",
    "coordinates": {
      "lat": 41.23687089204524,
      "long": -8.671272407196472
    }
  },
  "SLZ": {
    "code": "SLZ",
    "name": "Marechal Cunha Machado Int'l",
    "coordinates": {
      "lat": -2.583509210430185,
      "long": -44.236234470049205
    }
  },
  "SSZ": {
    "code": "SSZ",
    "name": "Santos Air Force Base",
    "coordinates": {
      "lat": -23.9237590410637,
      "long": -46.30527049310029
    }
  },
  "THE": {
    "code": "THE",
    "name": "Teresina-Senador Petronio Portella",
    "coordinates": {
      "lat": -5.06346299167191,
      "long": -42.82124023178447
    }
  },
  "VCP": {
    "code": "VCP",
    "name": "Viracopos-Campinas Int'l",
    "coordinates": {
      "lat": -23.00962390853391,
      "long": -47.141079191101426
    }
  },
  "VIX": {
    "code": "VIX",
    "name": "Eurico de Aguiar Salles",
    "coordinates": {
      "lat": -20.25741627594185,
      "long": -40.28853687599133
    }
  },
  "ALC": {
    "code": "ALC",
    "name": "Alicante",
    "coordinates": {
      "lat": 38.286640899392886,
      "long": -0.557230440363588
    }
  },
  "LEI": {
    "code": "LEI",
    "name": "Almeria",
    "coordinates": {
      "lat": 36.84776727096432,
      "long": -2.371601440591205
    }
  },
  "VLC": {
    "code": "VLC",
    "name": "Valencia",
    "coordinates": {
      "lat": 39.49145978844889,
      "long": -0.473474930771676
    }
  },
  "KRN": {
    "code": "KRN",
    "name": "Kiruna_Airport",
    "coordinates": {
      "lat": 67.8256066056432,
      "long": 20.335152295489802
    }
  },
  "NRK": {
    "code": "NRK",
    "name": "Norrkoping Airport",
    "coordinates": {
      "lat": 58.583380501754064,
      "long": 16.23394076958144
    }
  },
  "BDO": {
    "code": "BDO",
    "name": "Husein Sastranegara Int'l",
    "coordinates": {
      "lat": -6.900424083534088,
      "long": 107.57561185220892
    }
  },
  "ROS": {
    "code": "ROS",
    "name": "Rosario â€“ Islas Malvinas Int'l",
    "coordinates": {
      "lat": -32.91622697438119,
      "long": -60.78007872165863
    }
  },
  "MCZ": {
    "code": "MCZ",
    "name": "Maceio/Zumbi dos Palmares Int'l",
    "coordinates": {
      "lat": -9.514941185401165,
      "long": -35.79249512158329
    }
  },
  "SSH": {
    "code": "SSH",
    "name": "Sharm el-Sheikh Int'l",
    "coordinates": {
      "lat": 27.980404419916844,
      "long": 34.39011892672875
    }
  },
  "TCP": {
    "code": "TCP",
    "name": "Taba Int'l",
    "coordinates": {
      "lat": 29.594499056801894,
      "long": 34.775837899677896
    }
  },
  "AGR": {
    "code": "AGR",
    "name": "Agra",
    "coordinates": {
      "lat": 27.157727734749972,
      "long": 77.96090917650903
    }
  },
  "BDQ": {
    "code": "BDQ",
    "name": "Vadodara",
    "coordinates": {
      "lat": 22.33616400211708,
      "long": 73.2262889533239
    }
  },
  "KSH": {
    "code": "KSH",
    "name": "Shahid Ashrafi Esfahani",
    "coordinates": {
      "lat": 34.34641677391081,
      "long": 47.156583516563856
    }
  },
  "BEN": {
    "code": "BEN",
    "name": "Benina Int'l",
    "coordinates": {
      "lat": 32.08727746065531,
      "long": 20.268039801851568
    }
  },
  "DHA": {
    "code": "DHA",
    "name": "King Abdulaziz Ab",
    "coordinates": {
      "lat": 26.270368085476772,
      "long": 50.1477245727844
    }
  },
  "STY": {
    "code": "STY",
    "name": "Nueva Hesperides Int'l",
    "coordinates": {
      "lat": -31.437388338779797,
      "long": -57.98408211764924
    }
  },
  "BAIK": {
    "code": "BAIK",
    "name": "Baikonur Cosmodrome",
    "coordinates": {
      "lat": 45.963573940312365,
      "long": 63.30735442387505
    }
  },
  "KSC": {
    "code": "KSC",
    "name": "Kennedy Space Center",
    "coordinates": {
      "lat": 28.516370477202706,
      "long": -80.6369680911892
    }
  },
  "CSG": {
    "code": "CSG",
    "name": "Centre Spatial Guyanais",
    "coordinates": {
      "lat": 5.239410012580352,
      "long": -52.76842968934524
    }
  },
  "AUA": {
    "code": "AUA",
    "name": "Queen Beatrix Int'l",
    "coordinates": {
      "lat": 12.503464363029721,
      "long": -70.00762285634964
    }
  },
  "JIB": {
    "code": "JIB",
    "name": "Djibouti-Ambouli Int'l",
    "coordinates": {
      "lat": 11.552101823017216,
      "long": 43.149712785995575
    }
  },
  "IQQ": {
    "code": "IQQ",
    "name": "Diego Aracena Int'l",
    "coordinates": {
      "lat": -20.547840087830867,
      "long": -70.17863539553298
    }
  },
  "SAW": {
    "code": "SAW",
    "name": "Sabiha Gokcen Havaalani",
    "coordinates": {
      "lat": 40.90430035539573,
      "long": 29.309599142388944
    }
  },
  "KSA": {
    "code": "KSA",
    "name": "Kosrae Island",
    "coordinates": {
      "lat": 5.352009857182798,
      "long": 162.95704122507613
    }
  },
  "FUN": {
    "code": "FUN",
    "name": "Funafuti Int'l",
    "coordinates": {
      "lat": -8.52485415059424,
      "long": 179.19544202302
    }
  },
  "NAG": {
    "code": "NAG",
    "name": "Dr. Babasaheb Ambedkar Int'l",
    "coordinates": {
      "lat": 21.089931763008746,
      "long": 79.0537976421986
    }
  },
  "HKT": {
    "code": "HKT",
    "name": "Phuket Int'l",
    "coordinates": {
      "lat": 8.107684759527347,
      "long": 98.30603849005591
    }
  },
  "NAN": {
    "code": "NAN",
    "name": "Nadi Int'l",
    "coordinates": {
      "lat": -17.752912947979222,
      "long": 177.45115119805948
    }
  },
  "AGU": {
    "code": "AGU",
    "name": "Lic. Jesus Teran Peredo Int'l",
    "coordinates": {
      "lat": 21.701339032920746,
      "long": -102.3140937400579
    }
  },
  "ALL": {
    "code": "ALL",
    "name": "Albenga",
    "coordinates": {
      "lat": 44.04587735981584,
      "long": 8.12314535436409
    }
  },
  "AMM": {
    "code": "AMM",
    "name": "Queen Alia Int'l",
    "coordinates": {
      "lat": 31.722662160043214,
      "long": 35.989707162192985
    }
  },
  "ARI": {
    "code": "ARI",
    "name": "Chacalluta Int'l",
    "coordinates": {
      "lat": -18.349206163957913,
      "long": -70.3357301410959
    }
  },
  "ATR": {
    "code": "ATR",
    "name": "Atar Int'l",
    "coordinates": {
      "lat": 20.498270610156464,
      "long": -13.05117043233154
    }
  },
  "BAQ": {
    "code": "BAQ",
    "name": "Ernesto Cortissoz Int'l",
    "coordinates": {
      "lat": 10.886677595941366,
      "long": -74.77655597826495
    }
  },
  "BRC": {
    "code": "BRC",
    "name": "Teniente Luis Candelaria Int'l",
    "coordinates": {
      "lat": -41.14599769581051,
      "long": -71.16143008697632
    }
  },
  "BYK": {
    "code": "BYK",
    "name": "Bouake",
    "coordinates": {
      "lat": 7.736104955550318,
      "long": -5.068942222753115
    }
  },
  "BZE": {
    "code": "BZE",
    "name": "Philip S. W. Goldson Int'l",
    "coordinates": {
      "lat": 17.536068657552093,
      "long": -88.30820640330747
    }
  },
  "CRP": {
    "code": "CRP",
    "name": "Corpus Christi Int'l",
    "coordinates": {
      "lat": 27.77445607008226,
      "long": -97.50226787102976
    }
  },
  "CUR": {
    "code": "CUR",
    "name": "Hato Int'l",
    "coordinates": {
      "lat": 12.184834605201921,
      "long": -68.95687880727611
    }
  },
  "CUZ": {
    "code": "CUZ",
    "name": "Velazco Astete Int'l",
    "coordinates": {
      "lat": -13.538218699263911,
      "long": -71.94366414497216
    }
  },
  "DAR": {
    "code": "DAR",
    "name": "Julius Nyerere Int'l",
    "coordinates": {
      "lat": -6.866720042491186,
      "long": 39.207471503916466
    }
  },
  "DET": {
    "code": "DET",
    "name": "Detroit City",
    "coordinates": {
      "lat": 42.40909384319068,
      "long": -83.00396814177334
    }
  },
  "DIL": {
    "code": "DIL",
    "name": "Presidente Nicolau Lobato Int'l",
    "coordinates": {
      "lat": -8.549311574145644,
      "long": 125.52485420918208
    }
  },
  "DME": {
    "code": "DME",
    "name": "Moscow Domodedovo Int'l",
    "coordinates": {
      "lat": 55.41415282230229,
      "long": 37.90025312894517
    }
  },
  "DUD": {
    "code": "DUD",
    "name": "Dunedin Int'l",
    "coordinates": {
      "lat": -45.923431,
      "long": 170.200027
    }
  },
  "DZA": {
    "code": "DZA",
    "name": "Dzaoudzi Pamanzi Int'l",
    "coordinates": {
      "lat": -12.80494743816432,
      "long": 45.281786419789874
    }
  },
  "ELP": {
    "code": "ELP",
    "name": "El Paso Int'l",
    "coordinates": {
      "lat": 31.799086027258937,
      "long": -106.39571467936567
    }
  },
  "EVN": {
    "code": "EVN",
    "name": "Zvartnots Int'l",
    "coordinates": {
      "lat": 40.15236794518844,
      "long": 44.40006305369384
    }
  },
  "FTW": {
    "code": "FTW",
    "name": "Fort Worth Meacham Field",
    "coordinates": {
      "lat": 32.82075290479723,
      "long": -97.35513485615866
    }
  },
  "GDT": {
    "code": "GDT",
    "name": "JAGS McCartney Int'l",
    "coordinates": {
      "lat": 21.442123743906283,
      "long": -71.14613374488756
    }
  },
  "GLS": {
    "code": "GLS",
    "name": "Scholes Int'l",
    "coordinates": {
      "lat": 29.2671239212096,
      "long": -94.85540138762639
    }
  },
  "GOM": {
    "code": "GOM",
    "name": "Goma Int'l",
    "coordinates": {
      "lat": -1.658317950020695,
      "long": 29.240053495222842
    }
  },
  "GOU": {
    "code": "GOU",
    "name": "Garoua Int'l",
    "coordinates": {
      "lat": 9.33068867678854,
      "long": 13.372430937787765
    }
  },
  "GUM": {
    "code": "GUM",
    "name": "Antonio B. Won Pat Int'l",
    "coordinates": {
      "lat": 13.492646235946513,
      "long": 144.8058503570926
    }
  },
  "GYY": {
    "code": "GYY",
    "name": "Gary/Chicago Int'l",
    "coordinates": {
      "lat": 41.617793001516596,
      "long": -87.40835962474056
    }
  },
  "HAH": {
    "code": "HAH",
    "name": "Prince Said Ibrahim Int'l",
    "coordinates": {
      "lat": -11.536639382912684,
      "long": 43.274561217961576
    }
  },
  "HBA": {
    "code": "HBA",
    "name": "Hobart Int'l",
    "coordinates": {
      "lat": -42.83760836948221,
      "long": 147.50599619040787
    }
  },
  "HIR": {
    "code": "HIR",
    "name": "Honiara Int'l",
    "coordinates": {
      "lat": -9.427575664001457,
      "long": 160.04585512992452
    }
  },
  "IEV": {
    "code": "IEV",
    "name": "Kiev Zhuliany Int'l",
    "coordinates": {
      "lat": 50.412808165984956,
      "long": 30.445130518210362
    }
  },
  "IKT": {
    "code": "IKT",
    "name": "Irkutsk S.E.",
    "coordinates": {
      "lat": 52.272889388224414,
      "long": 104.35585974800242
    }
  },
  "IND": {
    "code": "IND",
    "name": "Indianapolis Int'l",
    "coordinates": {
      "lat": 39.730204370396905,
      "long": -86.27340036508855
    }
  },
  "INU": {
    "code": "INU",
    "name": "Nauru Int'l",
    "coordinates": {
      "lat": -0.545037226856384,
      "long": 166.91613965881993
    }
  },
  "IPC": {
    "code": "IPC",
    "name": "Mataveri Int'l",
    "coordinates": {
      "lat": -27.158773838853794,
      "long": -109.4300644100096
    }
  },
  "JUJ": {
    "code": "JUJ",
    "name": "Gob. Horacio Guzman Int'l",
    "coordinates": {
      "lat": -24.386101077584634,
      "long": -65.09376654588122
    }
  },
  "KHN": {
    "code": "KHN",
    "name": "Nanchang Changbei Int'l",
    "coordinates": {
      "lat": 28.862489120066552,
      "long": 115.91197991860221
    }
  },
  "KMG": {
    "code": "KMG",
    "name": "Kunming Wujiaba Int'l",
    "coordinates": {
      "lat": 24.99999611008102,
      "long": 102.74211757882347
    }
  },
  "LBA": {
    "code": "LBA",
    "name": "Leeds Bradford",
    "coordinates": {
      "lat": 53.86908194744343,
      "long": -1.659831067347459
    }
  },
  "LBV": {
    "code": "LBV",
    "name": "Libreville Leon M'ba Int'l",
    "coordinates": {
      "lat": 0.457139229503759,
      "long": 9.410223378207123
    }
  },
  "LFW": {
    "code": "LFW",
    "name": "Lome Tokoin",
    "coordinates": {
      "lat": 6.16687362722297,
      "long": 1.25093205640014
    }
  },
  "LWO": {
    "code": "LWO",
    "name": "Lviv Danylo Halytskyi Int'l",
    "coordinates": {
      "lat": 49.817850605000466,
      "long": 23.946126959894446
    }
  },
  "MAJ": {
    "code": "MAJ",
    "name": "Marshall Islands Int'l",
    "coordinates": {
      "lat": 7.068118485570913,
      "long": 171.28191937064796
    }
  },
  "MFM": {
    "code": "MFM",
    "name": "Macau Int'l",
    "coordinates": {
      "lat": 22.15765725296336,
      "long": 113.57451294861951
    }
  },
  "MGQ": {
    "code": "MGQ",
    "name": "Aden Adde Int'l",
    "coordinates": {
      "lat": 2.016353112149878,
      "long": 45.30363741862018
    }
  },
  "MPM": {
    "code": "MPM",
    "name": "Maputo Int'l",
    "coordinates": {
      "lat": -25.924276711787034,
      "long": 32.57419151947824
    }
  },
  "MRU": {
    "code": "MRU",
    "name": "Sir Seewoosagur Ramgoolam Int'l",
    "coordinates": {
      "lat": -20.431756779321564,
      "long": 57.67698600766355
    }
  },
  "NAP": {
    "code": "NAP",
    "name": "Naples Int'l",
    "coordinates": {
      "lat": 40.87807288436389,
      "long": 14.282844434020328
    }
  },
  "NDB": {
    "code": "NDB",
    "name": "Nouadhibou Int'l",
    "coordinates": {
      "lat": 20.92905230643873,
      "long": -17.03343986915384
    }
  },
  "NGB": {
    "code": "NGB",
    "name": "Ningbo Lishe Int'l",
    "coordinates": {
      "lat": 29.820823190686056,
      "long": 121.46181938848366
    }
  },
  "NKC": {
    "code": "NKC",
    "name": "Nouakchott Int'l",
    "coordinates": {
      "lat": 18.09792317181745,
      "long": -15.95192592522014
    }
  },
  "NOU": {
    "code": "NOU",
    "name": "La Tontouta Int'l",
    "coordinates": {
      "lat": -22.013638624898107,
      "long": 166.21723211869872
    }
  },
  "OAK": {
    "code": "OAK",
    "name": "Oakland Int'l",
    "coordinates": {
      "lat": 37.71230369516912,
      "long": -122.21326125786332
    }
  },
  "ONT": {
    "code": "ONT",
    "name": "Ontario Int'l",
    "coordinates": {
      "lat": 34.06019110206596,
      "long": -117.5923276516506
    }
  },
  "ORK": {
    "code": "ORK",
    "name": "Cork",
    "coordinates": {
      "lat": 51.84854054199235,
      "long": -8.490141999838173
    }
  },
  "PDG": {
    "code": "PDG",
    "name": "Minangkabau Int'l",
    "coordinates": {
      "lat": -0.786045714026273,
      "long": 100.28545585179133
    }
  },
  "PDL": {
    "code": "PDL",
    "name": "Joao Paulo II",
    "coordinates": {
      "lat": 37.743331647293275,
      "long": -25.696988219871116
    }
  },
  "PEW": {
    "code": "PEW",
    "name": "Bacha Khan Int'l",
    "coordinates": {
      "lat": 33.99140278895964,
      "long": 71.51881499126668
    }
  },
  "PIK": {
    "code": "PIK",
    "name": "Glasgow Prestwick",
    "coordinates": {
      "lat": 55.50889181051421,
      "long": -4.610971639010682
    }
  },
  "PMG": {
    "code": "PMG",
    "name": "Ponta Pora Int'l",
    "coordinates": {
      "lat": -22.551786560876014,
      "long": -55.70607937485728
    }
  },
  "PMR": {
    "code": "PMR",
    "name": "Palmerston N. Int'l",
    "coordinates": {
      "lat": -40.32331788520548,
      "long": 175.62128328195985
    }
  },
  "PNI": {
    "code": "PNI",
    "name": "Pohnpei Int'l",
    "coordinates": {
      "lat": 6.981306765121233,
      "long": 158.2033044909644
    }
  },
  "PPT": {
    "code": "PPT",
    "name": "Tahiti Faa'a Int'l",
    "coordinates": {
      "lat": -17.55945776599425,
      "long": -149.60975793242872
    }
  },
  "PSA": {
    "code": "PSA",
    "name": "Pisa Galileo Galilei Int'l",
    "coordinates": {
      "lat": 43.69832241576641,
      "long": 10.400134371805603
    }
  },
  "PZU": {
    "code": "PZU",
    "name": "Port Sudan New Int'l",
    "coordinates": {
      "lat": 19.434105238523106,
      "long": 37.23874759810247
    }
  },
  "RAI": {
    "code": "RAI",
    "name": "Praia Int'l",
    "coordinates": {
      "lat": 14.944988935283243,
      "long": -23.486201988358683
    }
  },
  "RAK": {
    "code": "RAK",
    "name": "Marrakech-Menara",
    "coordinates": {
      "lat": 31.60229465977643,
      "long": -8.024605359079887
    }
  },
  "RAR": {
    "code": "RAR",
    "name": "Rarotonga Int'l",
    "coordinates": {
      "lat": -21.20098217246316,
      "long": -159.7981563083873
    }
  },
  "REP": {
    "code": "REP",
    "name": "Siem Reap Int'l",
    "coordinates": {
      "lat": 13.408796969353801,
      "long": 103.81578052811155
    }
  },
  "RGA": {
    "code": "RGA",
    "name": "Hermes Quijada Int'l",
    "coordinates": {
      "lat": -53.7814746058316,
      "long": -67.75302684626753
    }
  },
  "RGL": {
    "code": "RGL",
    "name": "Piloto Civil Norberto Fernandez Int'l",
    "coordinates": {
      "lat": -51.61169808554019,
      "long": -69.30647117767309
    }
  },
  "RNO": {
    "code": "RNO",
    "name": "Reno-Tahoe Int'l",
    "coordinates": {
      "lat": 39.505849901470334,
      "long": -119.77528330810486
    }
  },
  "ROR": {
    "code": "ROR",
    "name": "Roman Tmetuchl Int'l",
    "coordinates": {
      "lat": 7.364495536129204,
      "long": 134.5329534661587
    }
  },
  "SID": {
    "code": "SID",
    "name": "Amilcar Cabral Int'l",
    "coordinates": {
      "lat": 16.734793269338514,
      "long": -22.9440574079648
    }
  },
  "SJJ": {
    "code": "SJJ",
    "name": "Sarajevo",
    "coordinates": {
      "lat": 43.825887224679725,
      "long": 18.336618545712724
    }
  },
  "SKB": {
    "code": "SKB",
    "name": "Robert L. Bradshaw Int'l",
    "coordinates": {
      "lat": 17.311125840442042,
      "long": -62.714212504731584
    }
  },
  "SLA": {
    "code": "SLA",
    "name": "MartÃ­n Miguel de GÃ¼emes Int",
    "coordinates": {
      "lat": -24.84437427133154,
      "long": -65.47847604377958
    }
  },
  "SPN": {
    "code": "SPN",
    "name": "Saipan Int'l",
    "coordinates": {
      "lat": 15.121516719766413,
      "long": 145.7236946586376
    }
  },
  "SRE": {
    "code": "SRE",
    "name": "Juana Azurduy de Padilla Int'l",
    "coordinates": {
      "lat": -19.01391579246574,
      "long": -65.29286313878465
    }
  },
  "SXM": {
    "code": "SXM",
    "name": "Princess Juliana Int'l",
    "coordinates": {
      "lat": 18.042244021474033,
      "long": -63.1122760858602
    }
  },
  "TAI": {
    "code": "TAI",
    "name": "Ta'izz Int'l",
    "coordinates": {
      "lat": 13.685497002557412,
      "long": 44.134782731062046
    }
  },
  "TAO": {
    "code": "TAO",
    "name": "Qingdao Liuting Int'l",
    "coordinates": {
      "lat": 36.267757808103866,
      "long": 120.3806859490605
    }
  },
  "TKK": {
    "code": "TKK",
    "name": "Chuuk Int'l",
    "coordinates": {
      "lat": 7.457617802884429,
      "long": 151.84204603740326
    }
  },
  "TNG": {
    "code": "TNG",
    "name": "Tangier Ibn Battouta",
    "coordinates": {
      "lat": 35.725765640927385,
      "long": -5.912880876559137
    }
  },
  "TRW": {
    "code": "TRW",
    "name": "Bonriki Int'l",
    "coordinates": {
      "lat": 1.380668697538305,
      "long": 173.14599079530137
    }
  },
  "TSE": {
    "code": "TSE",
    "name": "Astana Int'l",
    "coordinates": {
      "lat": 51.0269352907712,
      "long": 71.46094413999357
    }
  },
  "TSN": {
    "code": "TSN",
    "name": "Tianjin Binhai Int'l",
    "coordinates": {
      "lat": 39.12946099090075,
      "long": 117.35272315991853
    }
  },
  "TSV": {
    "code": "TSV",
    "name": "Townsville",
    "coordinates": {
      "lat": -19.256181437621244,
      "long": 146.77067890477002
    }
  },
  "TUC": {
    "code": "TUC",
    "name": "Teniente Gen. Benjamin Matienzo Int'l",
    "coordinates": {
      "lat": -26.835731005071423,
      "long": -65.10812462362482
    }
  },
  "TUN": {
    "code": "TUN",
    "name": "Aeroport Tunis",
    "coordinates": {
      "lat": 36.84744821772193,
      "long": 10.21769924471112
    }
  },
  "TUS": {
    "code": "TUS",
    "name": "Tucson Int'l",
    "coordinates": {
      "lat": 32.12035234418979,
      "long": -110.93771323213196
    }
  },
  "ULN": {
    "code": "ULN",
    "name": "Chinggis Khaan Int'l",
    "coordinates": {
      "lat": 47.852526096668434,
      "long": 106.76287399492858
    }
  },
  "URC": {
    "code": "URC",
    "name": "Urumqi Diwopu Int'l",
    "coordinates": {
      "lat": 43.898338219365286,
      "long": 87.46712984878084
    }
  },
  "VLI": {
    "code": "VLI",
    "name": "Bauerfield Int'l",
    "coordinates": {
      "lat": -17.701699068178094,
      "long": 168.3196227396616
    }
  },
  "WWK": {
    "code": "WWK",
    "name": "Wewak Int'l",
    "coordinates": {
      "lat": -3.580226894447444,
      "long": 143.66910229969758
    }
  },
  "XCR": {
    "code": "XCR",
    "name": "Chalons Vatry",
    "coordinates": {
      "lat": 48.78039461385664,
      "long": 4.19111982574289
    }
  },
  "XMN": {
    "code": "XMN",
    "name": "Xiamen Gaoqi Int'l",
    "coordinates": {
      "lat": 24.537192570557004,
      "long": 118.12696884672026
    }
  },
  "YAP": {
    "code": "YAP",
    "name": "Yap Int'l",
    "coordinates": {
      "lat": 9.497917333613481,
      "long": 138.08643028361917
    }
  },
  "ZLO": {
    "code": "ZLO",
    "name": "Playa de Oro Int'l",
    "coordinates": {
      "lat": 19.148086028585354,
      "long": -104.56009520009748
    }
  },
  "CAY": {
    "code": "CAY",
    "name": "Cayenne â€“ Rochambeau",
    "coordinates": {
      "lat": 4.821267143089237,
      "long": -52.363806857235694
    }
  },
  "UIIR": {
    "code": "UIIR",
    "name": "Irkutsk N.W.",
    "coordinates": {
      "lat": 52.36164767001315,
      "long": 104.19735928449404
    }
  },
  "SJW": {
    "code": "SJW",
    "name": "Shijiazhuang Zhengding Int'l",
    "coordinates": {
      "lat": 38.27814091311202,
      "long": 114.6922665989016
    }
  },
  "GYD": {
    "code": "GYD",
    "name": "Heydar Aliyev Int'l",
    "coordinates": {
      "lat": 40.46274688390803,
      "long": 50.04983948674051
    }
  },
  "LAK": {
    "code": "LAK",
    "name": "Lakatamia Airbase",
    "coordinates": {
      "lat": 35.10634480673619,
      "long": 33.322201334898956
    }
  },
  "CFB": {
    "code": "CFB",
    "name": "Cabo Frio Int'l",
    "coordinates": {
      "lat": -22.925631709132773,
      "long": -42.079251752018415
    }
  },
  "HEM": {
    "code": "HEM",
    "name": "Helsinki-Malmi",
    "coordinates": {
      "lat": 60.24937784995868,
      "long": 25.045535369831455
    }
  },
  "LUX": {
    "code": "LUX",
    "name": "Luxembourg-Findel",
    "coordinates": {
      "lat": 49.63430409251016,
      "long": 6.216421217287305
    }
  },
  "VCE": {
    "code": "VCE",
    "name": "Venice Marco Polo",
    "coordinates": {
      "lat": 45.504847758845486,
      "long": 12.341067300436913
    }
  },
  "YNY": {
    "code": "YNY",
    "name": "Yangyang Int'l",
    "coordinates": {
      "lat": 38.058782416258545,
      "long": 128.66298866883957
    }
  },
  "TBT": {
    "code": "TBT",
    "name": "Tabatinga Int'l",
    "coordinates": {
      "lat": -4.250324694933793,
      "long": -69.93947393390899
    }
  },
  "BVB": {
    "code": "BVB",
    "name": "Boa Vista Int'l",
    "coordinates": {
      "lat": 2.84119534121157,
      "long": -60.69222063386823
    }
  },
  "LPA": {
    "code": "LPA",
    "name": "Gran Canaria",
    "coordinates": {
      "lat": 27.936889971657408,
      "long": -15.389924515846113
    }
  },
  "ING": {
    "code": "ING",
    "name": "Com. Armando Tola Int'l",
    "coordinates": {
      "lat": -50.283900869003766,
      "long": -72.05385691012962
    }
  },
  "NYO": {
    "code": "NYO",
    "name": "Stockholm-Skavsta",
    "coordinates": {
      "lat": 58.785104130344784,
      "long": 16.92160555842542
    }
  },
  "MES": {
    "code": "MES",
    "name": "Polonia Int'l",
    "coordinates": {
      "lat": 3.56659179990894,
      "long": 98.67619257146407
    }
  },
  "BGF": {
    "code": "BGF",
    "name": "Bangui M'Poko Int'l",
    "coordinates": {
      "lat": 4.398851536959572,
      "long": 18.524123630208024
    }
  },
  "HGH": {
    "code": "HGH",
    "name": "Hangzhou Xiaoshan Int'l",
    "coordinates": {
      "lat": 30.235186279041436,
      "long": 120.43209737631294
    }
  },
  "CXI": {
    "code": "CXI",
    "name": "Cassidy Int'l",
    "coordinates": {
      "lat": 1.986161197924022,
      "long": -157.34977789343037
    }
  },
  "SQQ": {
    "code": "SQQ",
    "name": "Siauliai Int'l",
    "coordinates": {
      "lat": 55.90376945403999,
      "long": 23.383188573869113
    }
  },
  "IUE": {
    "code": "IUE",
    "name": "Niue Int'l",
    "coordinates": {
      "lat": -19.076712935451056,
      "long": -169.92612977421672
    }
  },
  "AGT": {
    "code": "AGT",
    "name": "Guarani Int'l",
    "coordinates": {
      "lat": -25.456857071581247,
      "long": -54.83939952960621
    }
  },
  "AQP": {
    "code": "AQP",
    "name": "Rodriguez Ballon Int'l",
    "coordinates": {
      "lat": -16.344552065351998,
      "long": -71.56793353852852
    }
  },
  "VVO": {
    "code": "VVO",
    "name": "Vladivostok Int'l",
    "coordinates": {
      "lat": 43.377649253388505,
      "long": 132.13984172071468
    }
  },
  "PRN": {
    "code": "PRN",
    "name": "Pristina",
    "coordinates": {
      "lat": 42.58503311534483,
      "long": 21.03026901247459
    }
  },
  "ANR": {
    "code": "ANR",
    "name": "Deurne",
    "coordinates": {
      "lat": 51.18912850638064,
      "long": 4.450922773999088
    }
  },
  "LAP": {
    "code": "LAP",
    "name": "Gen. Marquez de Leon Int'l",
    "coordinates": {
      "lat": 24.076090352180334,
      "long": -110.36719785980947
    }
  },
  "HRB": {
    "code": "HRB",
    "name": "Harbin Taiping",
    "coordinates": {
      "lat": 45.62060117232452,
      "long": 126.2369830308627
    }
  },
  "TRV": {
    "code": "TRV",
    "name": "Trivandrum Int'l",
    "coordinates": {
      "lat": 8.476509938945144,
      "long": 76.91890256129132
    }
  },
  "ADB": {
    "code": "ADB",
    "name": "Adnan Menderes",
    "coordinates": {
      "lat": 38.29123476451746,
      "long": 27.149297595266408
    }
  },
  "NKG": {
    "code": "NKG",
    "name": "Nanjing Lukou Int'l",
    "coordinates": {
      "lat": 31.73532492961766,
      "long": 118.86610214690592
    }
  },
  "FPO": {
    "code": "FPO",
    "name": "Freeport Int'l",
    "coordinates": {
      "lat": 26.548246747188983,
      "long": -78.70393431144967
    }
  },
  "TIP": {
    "code": "TIP",
    "name": "Tripoli Int'l",
    "coordinates": {
      "lat": 32.66916955049933,
      "long": 13.144258981071262
    }
  },
  "YQX": {
    "code": "YQX",
    "name": "Gander Int'l",
    "coordinates": {
      "lat": 48.946598006073565,
      "long": -54.57557190935781
    }
  },
  "DOH": {
    "code": "DOH",
    "name": "Doha Int'l",
    "coordinates": {
      "lat": 25.268246131050645,
      "long": 51.558548787654715
    }
  },
  "ABQ": {
    "code": "ABQ",
    "name": "Albuquerque Int'l",
    "coordinates": {
      "lat": 35.04915780182765,
      "long": -106.6166851616002
    }
  },
  "ANU": {
    "code": "ANU",
    "name": "V.C. Bird Int'l",
    "coordinates": {
      "lat": 17.140359937161683,
      "long": -61.792367669835826
    }
  },
  "APW": {
    "code": "APW",
    "name": "Faleolo",
    "coordinates": {
      "lat": -13.832501332395603,
      "long": -171.99732221833983
    }
  },
  "ATZ": {
    "code": "ATZ",
    "name": "Asyut",
    "coordinates": {
      "lat": 27.05081584069781,
      "long": 31.016249043801107
    }
  },
  "BAH": {
    "code": "BAH",
    "name": "Bahrain Int'l",
    "coordinates": {
      "lat": 26.269697149949714,
      "long": 50.62600287575336
    }
  },
  "BDL": {
    "code": "BDL",
    "name": "Bradley Int'l",
    "coordinates": {
      "lat": 41.93031600583518,
      "long": -72.68539474333903
    }
  },
  "BGI": {
    "code": "BGI",
    "name": "Grantley Adams Int'l",
    "coordinates": {
      "lat": 13.079661104553033,
      "long": -59.48741889531585
    }
  },
  "BJL": {
    "code": "BJL",
    "name": "Yundum Int'l",
    "coordinates": {
      "lat": 13.343860478894186,
      "long": -16.652313269807472
    }
  },
  "BJM": {
    "code": "BJM",
    "name": "Bujumbura Int'l",
    "coordinates": {
      "lat": -3.322044349131131,
      "long": 29.32098401699387
    }
  },
  "BLZ": {
    "code": "BLZ",
    "name": "Chileka Int'l",
    "coordinates": {
      "lat": -15.68138447932725,
      "long": 34.971944183793276
    }
  },
  "BME": {
    "code": "BME",
    "name": "Broome Int'l",
    "coordinates": {
      "lat": -17.95257612926801,
      "long": 122.23385051502184
    }
  },
  "BND": {
    "code": "BND",
    "name": "Bandar Abbass Int'l",
    "coordinates": {
      "lat": 27.210325845514543,
      "long": 56.368886456411
    }
  },
  "BSR": {
    "code": "BSR",
    "name": "Basrah Int'l",
    "coordinates": {
      "lat": 30.552799016106043,
      "long": 47.668376663351836
    }
  },
  "CJS": {
    "code": "CJS",
    "name": "Ciudad Juarez Int'l",
    "coordinates": {
      "lat": 31.635756620195146,
      "long": -106.4358466310554
    }
  },
  "CMB": {
    "code": "CMB",
    "name": "Katunayake Int'l",
    "coordinates": {
      "lat": 7.178077105442211,
      "long": 79.88525734215062
    }
  },
  "CNS": {
    "code": "CNS",
    "name": "Cairns Int'l",
    "coordinates": {
      "lat": -16.876742155406177,
      "long": 145.75358484439977
    }
  },
  "CNX": {
    "code": "CNX",
    "name": "Chiang Mai Int'l",
    "coordinates": {
      "lat": 18.768847391967526,
      "long": 98.96811812415933
    }
  },
  "COS": {
    "code": "COS",
    "name": "City of Colorado Springs",
    "coordinates": {
      "lat": 38.79742487791252,
      "long": -104.70088027411134
    }
  },
  "CPE": {
    "code": "CPE",
    "name": "Ign. Alberto Ongay Int'l",
    "coordinates": {
      "lat": 19.81422479920744,
      "long": -90.50362837340384
    }
  },
  "CSX": {
    "code": "CSX",
    "name": "Changsha Huanghua Int'l",
    "coordinates": {
      "lat": 28.189921861945066,
      "long": 113.21405420325205
    }
  },
  "CVG": {
    "code": "CVG",
    "name": "Greater Cincinnati Int'l",
    "coordinates": {
      "lat": 39.05541890478304,
      "long": -84.65616991533919
    }
  },
  "DAD": {
    "code": "DAD",
    "name": "Da Nang",
    "coordinates": {
      "lat": 16.05314414516696,
      "long": 108.20270625793569
    }
  },
  "DAL": {
    "code": "DAL",
    "name": "Dallas Love Field",
    "coordinates": {
      "lat": 32.84442537327384,
      "long": -96.84986377097995
    }
  },
  "DAM": {
    "code": "DAM",
    "name": "Damascus Int'l",
    "coordinates": {
      "lat": 33.41143667027319,
      "long": 36.51289547181257
    }
  },
  "DAV": {
    "code": "DAV",
    "name": "Enrique Malek Int'l",
    "coordinates": {
      "lat": 8.391261061169175,
      "long": -82.43175833693866
    }
  },
  "DIR": {
    "code": "DIR",
    "name": "Aba Tenna D. Yilma Int'l",
    "coordinates": {
      "lat": 9.61267784753569,
      "long": 41.857756722253
    }
  },
  "DPS": {
    "code": "DPS",
    "name": "Bali Int'l",
    "coordinates": {
      "lat": -8.744757315956518,
      "long": 115.16232296110661
    }
  },
  "DSM": {
    "code": "DSM",
    "name": "Des Moines Int'l",
    "coordinates": {
      "lat": 41.5327904242113,
      "long": -93.64846125637362
    }
  },
  "EBB": {
    "code": "EBB",
    "name": "Entebbe Int'l",
    "coordinates": {
      "lat": 0.044940949388672,
      "long": 32.4427573135214
    }
  },
  "FKI": {
    "code": "FKI",
    "name": "Kisangani Bangoka Int'l",
    "coordinates": {
      "lat": 0.492225136917501,
      "long": 25.330271489621154
    }
  },
  "FOC": {
    "code": "FOC",
    "name": "Fuzhou Changle Int'l",
    "coordinates": {
      "lat": 25.931823314814313,
      "long": 119.6680438209992
    }
  },
  "GAU": {
    "code": "GAU",
    "name": "Lokpriya G. Bordoloi Int'l",
    "coordinates": {
      "lat": 26.105247592425503,
      "long": 91.58822905818697
    }
  },
  "GDN": {
    "code": "GDN",
    "name": "Gdansk Lech Walesa",
    "coordinates": {
      "lat": 54.380702535292464,
      "long": 18.468442216591136
    }
  },
  "GND": {
    "code": "GND",
    "name": "Point Salines Int'l",
    "coordinates": {
      "lat": 12.007268305428271,
      "long": -61.78585299092849
    }
  },
  "GOJ": {
    "code": "GOJ",
    "name": "Nizhny Novgorod Int'l",
    "coordinates": {
      "lat": 56.21855259106556,
      "long": 43.789633706293515
    }
  },
  "GYM": {
    "code": "GYM",
    "name": "Gen. Jose M. Yanez Int'l",
    "coordinates": {
      "lat": 27.969455396282893,
      "long": -110.9216512704022
    }
  },
  "HET": {
    "code": "HET",
    "name": "Hohhot Baita Int'l",
    "coordinates": {
      "lat": 40.85406009065522,
      "long": 111.81468182162591
    }
  },
  "HLN": {
    "code": "HLN",
    "name": "Helena Reg.",
    "coordinates": {
      "lat": 46.61020435289996,
      "long": -111.9898968960076
    }
  },
  "HMO": {
    "code": "HMO",
    "name": "Gen. Ignacio P. Garcia Int'l",
    "coordinates": {
      "lat": 29.090077252344535,
      "long": -111.0519017118191
    }
  },
  "IAD": {
    "code": "IAD",
    "name": "Dulles Int'l",
    "coordinates": {
      "lat": 38.95277403795302,
      "long": -77.44779257692062
    }
  },
  "ITO": {
    "code": "ITO",
    "name": "Hilo Int'l",
    "coordinates": {
      "lat": 19.714797686866262,
      "long": -155.0396297334349
    }
  },
  "JAN": {
    "code": "JAN",
    "name": "Jackson Int'l",
    "coordinates": {
      "lat": 32.31006002736351,
      "long": -90.07509862769238
    }
  },
  "JAX": {
    "code": "JAX",
    "name": "Jacksonville Int'l",
    "coordinates": {
      "lat": 30.491352730947966,
      "long": -81.68357672783112
    }
  },
  "KCH": {
    "code": "KCH",
    "name": "Kuching Int'l",
    "coordinates": {
      "lat": 1.487207937790097,
      "long": 110.3418370543153
    }
  },
  "KGL": {
    "code": "KGL",
    "name": "Kigali Int'l",
    "coordinates": {
      "lat": -1.96365443664138,
      "long": 30.13487681878561
    }
  },
  "KRK": {
    "code": "KRK",
    "name": "Balice",
    "coordinates": {
      "lat": 50.07226306483314,
      "long": 19.800977284450408
    }
  },
  "KUF": {
    "code": "KUF",
    "name": "Kurumoch",
    "coordinates": {
      "lat": 53.50838481909353,
      "long": 50.14726552101905
    }
  },
  "KWL": {
    "code": "KWL",
    "name": "Guilin Liangjiang Int'l",
    "coordinates": {
      "lat": 25.217605525229324,
      "long": 110.04689349777009
    }
  },
  "LAO": {
    "code": "LAO",
    "name": "Laoag Int'l",
    "coordinates": {
      "lat": 18.182418086637874,
      "long": 120.53387619612701
    }
  },
  "LGA": {
    "code": "LGA",
    "name": "LaGuardia",
    "coordinates": {
      "lat": 40.77455393988576,
      "long": -73.8719858204814
    }
  },
  "LGW": {
    "code": "LGW",
    "name": "London Gatwick",
    "coordinates": {
      "lat": 51.155756751927456,
      "long": -0.162961639139456
    }
  },
  "LJU": {
    "code": "LJU",
    "name": "Ljubljana",
    "coordinates": {
      "lat": 46.230544555448624,
      "long": 14.454812628326566
    }
  },
  "LKO": {
    "code": "LKO",
    "name": "Amausi Int'l",
    "coordinates": {
      "lat": 26.763932870091633,
      "long": 80.88417197324722
    }
  },
  "LPG": {
    "code": "LPG",
    "name": "La Plata",
    "coordinates": {
      "lat": -34.9655441559234,
      "long": -57.89538206365101
    }
  },
  "MAM": {
    "code": "MAM",
    "name": "Gen. Sevando Canales",
    "coordinates": {
      "lat": 25.770841264061858,
      "long": -97.53082171211871
    }
  },
  "MAN": {
    "code": "MAN",
    "name": "Manchester Int'l",
    "coordinates": {
      "lat": 53.36248960665181,
      "long": -2.273371590694274
    }
  },
  "MCI": {
    "code": "MCI",
    "name": "Kansas City Int'l",
    "coordinates": {
      "lat": 39.297895826365945,
      "long": -94.71591485791544
    }
  },
  "MCT": {
    "code": "MCT",
    "name": "Seeb Int'l",
    "coordinates": {
      "lat": 23.588570417585636,
      "long": 58.2904804753493
    }
  },
  "MIR": {
    "code": "MIR",
    "name": "Habib Bourguiba Int'l",
    "coordinates": {
      "lat": 35.76071044217803,
      "long": 10.75336818505404
    }
  },
  "MRS": {
    "code": "MRS",
    "name": "Marseille Provence Airport",
    "coordinates": {
      "lat": 43.44106000164679,
      "long": 5.221379177203373
    }
  },
  "NLD": {
    "code": "NLD",
    "name": "Quetzalcoatl Int'l",
    "coordinates": {
      "lat": 27.449689650831623,
      "long": -99.5680081930063
    }
  },
  "NNG": {
    "code": "NNG",
    "name": "Nanning Wuwu Int'l",
    "coordinates": {
      "lat": 22.612037054178508,
      "long": 108.16801227333096
    }
  },
  "OAX": {
    "code": "OAX",
    "name": "Xoxocotlan Int'l",
    "coordinates": {
      "lat": 17.000559256974505,
      "long": -96.72179593849754
    }
  },
  "OGG": {
    "code": "OGG",
    "name": "Kahului",
    "coordinates": {
      "lat": 20.89328851511117,
      "long": -156.4374295813534
    }
  },
  "OKC": {
    "code": "OKC",
    "name": "Will Rogers",
    "coordinates": {
      "lat": 35.39527749117442,
      "long": -97.59611775420922
    }
  },
  "ORF": {
    "code": "ORF",
    "name": "Norfolk Int'l",
    "coordinates": {
      "lat": 36.89823946736742,
      "long": -76.2044231712327
    }
  },
  "PBI": {
    "code": "PBI",
    "name": "Palm Beach Int'l",
    "coordinates": {
      "lat": 26.688441666432965,
      "long": -80.09018933833873
    }
  },
  "PBM": {
    "code": "PBM",
    "name": "Pengel Int'l",
    "coordinates": {
      "lat": 5.455999677974393,
      "long": -55.199911389290236
    }
  },
  "PEE": {
    "code": "PEE",
    "name": "Bolshesavino",
    "coordinates": {
      "lat": 57.919771123169134,
      "long": 56.019560282029694
    }
  },
  "PEN": {
    "code": "PEN",
    "name": "Penang Int'l",
    "coordinates": {
      "lat": 5.292656277904887,
      "long": 100.26578638095476
    }
  },
  "PHC": {
    "code": "PHC",
    "name": "Port Harcourt Int'l",
    "coordinates": {
      "lat": 5.007003476739435,
      "long": 6.949897427231909
    }
  },
  "PHE": {
    "code": "PHE",
    "name": "Port Hedland Int'l",
    "coordinates": {
      "lat": -20.378127296072336,
      "long": 118.63179781561529
    }
  },
  "PIR": {
    "code": "PIR",
    "name": "Pierre Regional",
    "coordinates": {
      "lat": 44.38015346687622,
      "long": -100.29264198170532
    }
  },
  "PIT": {
    "code": "PIT",
    "name": "Greater Pittsburgh Int'l",
    "coordinates": {
      "lat": 40.496051891528495,
      "long": -80.2561290571918
    }
  },
  "PPG": {
    "code": "PPG",
    "name": "Pago Pago Int'l",
    "coordinates": {
      "lat": -14.329064185030566,
      "long": -170.71330705373444
    }
  },
  "BHX": {
    "code": "BHX",
    "name": "Birmingham Int'l",
    "coordinates": {
      "lat": 52.45290855428381,
      "long": -1.733731704344524
    }
  },
  "ROB": {
    "code": "ROB",
    "name": "Roberts Int'l",
    "coordinates": {
      "lat": 6.241834565545255,
      "long": -10.353085186793352
    }
  },
  "RPR": {
    "code": "RPR",
    "name": "Raipur",
    "coordinates": {
      "lat": 21.18598685614469,
      "long": 81.74037759152014
    }
  },
  "SAL": {
    "code": "SAL",
    "name": "El Salvador Int'l",
    "coordinates": {
      "lat": 13.444748122861604,
      "long": -89.0572035692743
    }
  },
  "SAN": {
    "code": "SAN",
    "name": "San Diego Int'l",
    "coordinates": {
      "lat": 32.73226455701319,
      "long": -117.19751102573103
    }
  },
  "SAT": {
    "code": "SAT",
    "name": "San Antonio Int'l",
    "coordinates": {
      "lat": 29.526620339131505,
      "long": -98.4719699991559
    }
  },
  "SAV": {
    "code": "SAV",
    "name": "Savannah Int'l",
    "coordinates": {
      "lat": 32.13564155229021,
      "long": -81.20996477509134
    }
  },
  "SCU": {
    "code": "SCU",
    "name": "Antonio Maceo",
    "coordinates": {
      "lat": 19.972428871762215,
      "long": -75.83988776397909
    }
  },
  "SLP": {
    "code": "SLP",
    "name": "Ponciano Arriaga Int'l",
    "coordinates": {
      "lat": 22.255713049590337,
      "long": -100.93647781626697
    }
  },
  "SMF": {
    "code": "SMF",
    "name": "Sacramento Int'l",
    "coordinates": {
      "lat": 38.6927238925554,
      "long": -121.58789487772277
    }
  },
  "STI": {
    "code": "STI",
    "name": "Cibao Int'l",
    "coordinates": {
      "lat": 19.46592191528884,
      "long": -70.69417832244676
    }
  },
  "SVX": {
    "code": "SVX",
    "name": "Koltsovo",
    "coordinates": {
      "lat": 56.73224561204597,
      "long": 60.80580334321738
    }
  },
  "SYR": {
    "code": "SYR",
    "name": "Syracuse Hancock Int'l",
    "coordinates": {
      "lat": 43.13178449437413,
      "long": -76.1130789991049
    }
  },
  "TBZ": {
    "code": "TBZ",
    "name": "Tabriz",
    "coordinates": {
      "lat": 38.131110768817514,
      "long": 46.244713373574
    }
  },
  "TRC": {
    "code": "TRC",
    "name": "Torreon Int'l",
    "coordinates": {
      "lat": 25.56321643998958,
      "long": -103.39878782857888
    }
  },
  "TUL": {
    "code": "TUL",
    "name": "Tulsa Int'l",
    "coordinates": {
      "lat": 36.19012756519499,
      "long": -95.88988227154202
    }
  },
  "TYS": {
    "code": "TYS",
    "name": "Mcghee Tyson",
    "coordinates": {
      "lat": 35.80574480270883,
      "long": -83.98993783275846
    }
  },
  "UFA": {
    "code": "UFA",
    "name": "Ufa Int'l",
    "coordinates": {
      "lat": 54.56513235789718,
      "long": 55.884077341183726
    }
  },
  "UVF": {
    "code": "UVF",
    "name": "Hewanorra Int'l",
    "coordinates": {
      "lat": 13.736523805048892,
      "long": -60.949973772346056
    }
  },
  "WDH": {
    "code": "WDH",
    "name": "Windhoek Hosea Kutako Int'l",
    "coordinates": {
      "lat": -22.486953120204117,
      "long": 17.463225902813253
    }
  },
  "YAM": {
    "code": "YAM",
    "name": "Sault Ste Marie",
    "coordinates": {
      "lat": 46.485417510192555,
      "long": -84.50060899997175
    }
  },
  "YDQ": {
    "code": "YDQ",
    "name": "Dawson Cr.",
    "coordinates": {
      "lat": 55.7394117074557,
      "long": -120.18559561910142
    }
  },
  "YEG": {
    "code": "YEG",
    "name": "Edmonton Int'l",
    "coordinates": {
      "lat": 53.307200161918324,
      "long": -113.5844925644056
    }
  },
  "YHZ": {
    "code": "YHZ",
    "name": "Halifax Int'l",
    "coordinates": {
      "lat": 44.886545450100954,
      "long": -63.514965250167336
    }
  },
  "YKA": {
    "code": "YKA",
    "name": "Kamloops",
    "coordinates": {
      "lat": 50.70519551845913,
      "long": -120.44173476396232
    }
  },
  "YSB": {
    "code": "YSB",
    "name": "Sudbury",
    "coordinates": {
      "lat": 46.622750820489316,
      "long": -80.79577478171052
    }
  },
  "YSJ": {
    "code": "YSJ",
    "name": "Saint John",
    "coordinates": {
      "lat": 45.329230595501656,
      "long": -65.89055736811677
    }
  },
  "YXS": {
    "code": "YXS",
    "name": "Prince George",
    "coordinates": {
      "lat": 53.884248575113766,
      "long": -122.67401474398616
    }
  },
  "YYJ": {
    "code": "YYJ",
    "name": "Victoria Int'l",
    "coordinates": {
      "lat": 48.64052948217902,
      "long": -123.43062453952774
    }
  },
  "ZAM": {
    "code": "ZAM",
    "name": "Zamboanga Int'l",
    "coordinates": {
      "lat": 6.919757748058303,
      "long": 122.06243232163732
    }
  },
  "ZGC": {
    "code": "ZGC",
    "name": "Lanzhou Zhongchuan",
    "coordinates": {
      "lat": 36.50788424612367,
      "long": 103.61541536304331
    }
  },
  "ALB": {
    "code": "ALB",
    "name": "Albany Int'l",
    "coordinates": {
      "lat": 42.745661980172905,
      "long": -73.80935188431725
    }
  },
  "MKE": {
    "code": "MKE",
    "name": "General Mitchell Int'l",
    "coordinates": {
      "lat": 42.94791987295855,
      "long": -87.90210562507438
    }
  },
  "ZHHH": {
    "code": "ZHHH",
    "name": "Wang-Chia Tun Airbase",
    "coordinates": {
      "lat": 30.60171411967017,
      "long": 114.24694737615044
    }
  },
  "SYX": {
    "code": "SYX",
    "name": "Sanya Phoenix Int'l",
    "coordinates": {
      "lat": 18.309095990859316,
      "long": 109.40823949107957
    }
  },
  "LXA": {
    "code": "LXA",
    "name": "Lhasa Gonggar",
    "coordinates": {
      "lat": 29.29369361231842,
      "long": 90.9005610194027
    }
  },
  "HTN": {
    "code": "HTN",
    "name": "Hotan",
    "coordinates": {
      "lat": 37.04003635097652,
      "long": 79.87230052121915
    }
  },
  "DRS": {
    "code": "DRS",
    "name": "Dresden",
    "coordinates": {
      "lat": 51.125091242887116,
      "long": 13.764967144004661
    }
  },
  "NNA": {
    "code": "NNA",
    "name": "Kenitra Air Base",
    "coordinates": {
      "lat": 34.298667363822325,
      "long": -6.597753628115997
    }
  },
  "QNJ": {
    "code": "QNJ",
    "name": "Annemasse",
    "coordinates": {
      "lat": 46.19572832862606,
      "long": 6.264910853641591
    }
  },
  "NOG": {
    "code": "NOG",
    "name": "Nogales Int'l",
    "coordinates": {
      "lat": 31.225537174115924,
      "long": -110.97272130167508
    }
  },
  "SXB": {
    "code": "SXB",
    "name": "Strasbourg",
    "coordinates": {
      "lat": 48.54469617217594,
      "long": 7.627841966889242
    }
  },
  "CGN": {
    "code": "CGN",
    "name": "Cologne/Bonn",
    "coordinates": {
      "lat": 50.87825966294709,
      "long": 7.122359755245386
    }
  },
  "PUS": {
    "code": "PUS",
    "name": "Kimhae Int'l",
    "coordinates": {
      "lat": 35.17028406368295,
      "long": 128.9488013790388
    }
  },
  "CJU": {
    "code": "CJU",
    "name": "Jeju Int'l",
    "coordinates": {
      "lat": 33.52471731503988,
      "long": 126.49162940197242
    }
  },
  "SVG": {
    "code": "SVG",
    "name": "Stavanger Sola",
    "coordinates": {
      "lat": 58.88215648421848,
      "long": 5.629810329721799
    }
  },
  "TRD": {
    "code": "TRD",
    "name": "Trondheim Vaernes",
    "coordinates": {
      "lat": 63.472029381716986,
      "long": 10.916809524144515
    }
  },
  "CMG": {
    "code": "CMG",
    "name": "Corumba Int'l",
    "coordinates": {
      "lat": -19.01416628855335,
      "long": -57.663607892554346
    }
  },
  "FNC": {
    "code": "FNC",
    "name": "Madeira",
    "coordinates": {
      "lat": 32.69336428474887,
      "long": -16.775637453121334
    }
  },
  "IGU": {
    "code": "IGU",
    "name": "Foz do IguaÃ§u Int'l",
    "coordinates": {
      "lat": -25.597683216210232,
      "long": -54.48859227356332
    }
  },
  "PVH": {
    "code": "PVH",
    "name": "Gov. Jorge Teixeira de Oliveira Int'l",
    "coordinates": {
      "lat": -8.714424828592882,
      "long": -63.89846250042134
    }
  },
  "BIO": {
    "code": "BIO",
    "name": "Bilbao",
    "coordinates": {
      "lat": 43.30508298111947,
      "long": -2.906090116798053
    }
  },
  "PMI": {
    "code": "PMI",
    "name": "Palma de Mallorca",
    "coordinates": {
      "lat": 39.56577585862541,
      "long": 2.729976602006474
    }
  },
  "TFN": {
    "code": "TFN",
    "name": "Tenerife N.",
    "coordinates": {
      "lat": 28.487577026773145,
      "long": -16.346317567926352
    }
  },
  "GOT": {
    "code": "GOT",
    "name": "Gothenburg",
    "coordinates": {
      "lat": 57.685749353487864,
      "long": 12.29382690925731
    }
  },
  "LLA": {
    "code": "LLA",
    "name": "Lulea",
    "coordinates": {
      "lat": 65.54903624776163,
      "long": 22.123027124394543
    }
  },
  "AUH": {
    "code": "AUH",
    "name": "Abu Dhabi Int'l",
    "coordinates": {
      "lat": 24.42722715297642,
      "long": 54.646329322555786
    }
  },
  "CZL": {
    "code": "CZL",
    "name": "Mohamed Boudiaf Int'l",
    "coordinates": {
      "lat": 36.28344094416007,
      "long": 6.621946651812188
    }
  },
  "ASW": {
    "code": "ASW",
    "name": "Aswan Int'l",
    "coordinates": {
      "lat": 23.968276544177797,
      "long": 32.82443724629733
    }
  },
  "RVN": {
    "code": "RVN",
    "name": "Rovaniemi",
    "coordinates": {
      "lat": 66.55955641685094,
      "long": 25.829440976045195
    }
  },
  "GEO": {
    "code": "GEO",
    "name": "Cheddi Jagan Int'l",
    "coordinates": {
      "lat": 6.498552908135722,
      "long": -58.25411919258886
    }
  },
  "COK": {
    "code": "COK",
    "name": "Cochin Int'l",
    "coordinates": {
      "lat": 10.155118762811767,
      "long": 76.39051985020242
    }
  },
  "EDL": {
    "code": "EDL",
    "name": "Eldoret Int'l",
    "coordinates": {
      "lat": 0.40507147546036,
      "long": 35.223693065830126
    }
  },
  "ICN": {
    "code": "ICN",
    "name": "Incheon Int'l",
    "coordinates": {
      "lat": 37.449208862434624,
      "long": 126.45087598079584
    }
  },
  "CUL": {
    "code": "CUL",
    "name": "Federal de Bachigualato Int'l",
    "coordinates": {
      "lat": 24.766804039046114,
      "long": -107.46986379289618
    }
  },
  "ISB": {
    "code": "ISB",
    "name": "Benazir Bhutto Int'l",
    "coordinates": {
      "lat": 33.607445750752625,
      "long": 73.10079364718818
    }
  },
  "BRU": {
    "code": "BRU",
    "name": "Brussels",
    "coordinates": {
      "lat": 50.89729496415108,
      "long": 4.484640324082722
    }
  },
  "ABV": {
    "code": "ABV",
    "name": "Abuja Int'l",
    "coordinates": {
      "lat": 9.00437659781094,
      "long": 7.270259939743561
    }
  },
  "ACV": {
    "code": "ACV",
    "name": "Arcata-Eureka",
    "coordinates": {
      "lat": 40.97192453813144,
      "long": -124.10706552013855
    }
  },
  "AUS": {
    "code": "AUS",
    "name": "Austin-Bergstrom Int'l",
    "coordinates": {
      "lat": 30.202108192074945,
      "long": -97.66683676460543
    }
  },
  "AYT": {
    "code": "AYT",
    "name": "Antalya",
    "coordinates": {
      "lat": 36.915323305186774,
      "long": 30.80255264394152
    }
  },
  "BFS": {
    "code": "BFS",
    "name": "Belfast Int'l",
    "coordinates": {
      "lat": 54.66155754701032,
      "long": -6.21616943734958
    }
  },
  "BGY": {
    "code": "BGY",
    "name": "Orio Al Serio",
    "coordinates": {
      "lat": 45.66549805606945,
      "long": 9.698917693997402
    }
  },
  "BKI": {
    "code": "BKI",
    "name": "Kota Kinabalu Int'l",
    "coordinates": {
      "lat": 5.922894454748071,
      "long": 116.05108787336903
    }
  },
  "BLR": {
    "code": "BLR",
    "name": "Bengaluru Int'l",
    "coordinates": {
      "lat": 13.200610806960903,
      "long": 77.70955798895749
    }
  },
  "CBR": {
    "code": "CBR",
    "name": "Canberra Int'l",
    "coordinates": {
      "lat": -35.3071855902909,
      "long": 149.19076053967132
    }
  },
  "CMH": {
    "code": "CMH",
    "name": "Port Columbus Int'l",
    "coordinates": {
      "lat": 39.9981181922432,
      "long": -82.8840306426634
    }
  },
  "CMN": {
    "code": "CMN",
    "name": "Mohamed V Int'l",
    "coordinates": {
      "lat": 33.374727481539615,
      "long": -7.581455990257197
    }
  },
  "DUS": {
    "code": "DUS",
    "name": "Dusseldorf Int'l",
    "coordinates": {
      "lat": 51.2781820420774,
      "long": 6.76494446612174
    }
  },
  "ESB": {
    "code": "ESB",
    "name": "Esenboga Int'l",
    "coordinates": {
      "lat": 40.11512782732336,
      "long": 32.99301007720143
    }
  },
  "HLZ": {
    "code": "HLZ",
    "name": "Hamilton Int'l",
    "coordinates": {
      "lat": -37.865841148482694,
      "long": 175.33622143270816
    }
  },
  "HYD": {
    "code": "HYD",
    "name": "Rajiv Gandhi Int'l",
    "coordinates": {
      "lat": 17.235983150747067,
      "long": 78.42953613451998
    }
  },
  "JFK": {
    "code": "JFK",
    "name": "John F Kennedy Int'l",
    "coordinates": {
      "lat": 40.645959558408144,
      "long": -73.78632686092955
    }
  },
  "KBP": {
    "code": "KBP",
    "name": "Boryspil Int'l",
    "coordinates": {
      "lat": 50.34090233887696,
      "long": 30.89516216155281
    }
  },
  "KRT": {
    "code": "KRT",
    "name": "Khartoum",
    "coordinates": {
      "lat": 15.59222265308578,
      "long": 32.550153296632956
    }
  },
  "MSN": {
    "code": "MSN",
    "name": "Dane Cty. Reg. (Truax Field)",
    "coordinates": {
      "lat": 43.13630823858675,
      "long": -89.34578478944866
    }
  },
  "MSQ": {
    "code": "MSQ",
    "name": "Minsk Int'l",
    "coordinates": {
      "lat": 53.88937923980054,
      "long": 28.034193334637767
    }
  },
  "PMO": {
    "code": "PMO",
    "name": "Palermo",
    "coordinates": {
      "lat": 38.186335108489494,
      "long": 13.105530988863753
    }
  },
  "PVD": {
    "code": "PVD",
    "name": "T.F. Green",
    "coordinates": {
      "lat": 41.726001984718906,
      "long": -71.4357841445789
    }
  },
  "RSW": {
    "code": "RSW",
    "name": "Southwest Florida Int'l",
    "coordinates": {
      "lat": 26.527928806765104,
      "long": -81.75512314093055
    }
  },
  "SHE": {
    "code": "SHE",
    "name": "Shenyang Taoxian Int'l",
    "coordinates": {
      "lat": 41.634789133958215,
      "long": 123.4879744303385
    }
  },
  "SHJ": {
    "code": "SHJ",
    "name": "Sharjah Int'l",
    "coordinates": {
      "lat": 25.321196401906818,
      "long": 55.52050719488528
    }
  },
  "SJC": {
    "code": "SJC",
    "name": "San Jose Int'l",
    "coordinates": {
      "lat": 37.36949059089655,
      "long": -121.92942898353154
    }
  },
  "SNA": {
    "code": "SNA",
    "name": "John Wayne",
    "coordinates": {
      "lat": 33.6794857329549,
      "long": -117.8614892203934
    }
  },
  "STR": {
    "code": "STR",
    "name": "Stuttgart",
    "coordinates": {
      "lat": 48.69010513589129,
      "long": 9.193951089455357
    }
  },
  "SYQ": {
    "code": "SYQ",
    "name": "Nacional Tobias Bolanos",
    "coordinates": {
      "lat": 9.958278519196229,
      "long": -84.13860919715941
    }
  },
  "SZX": {
    "code": "SZX",
    "name": "Shenzhen Bao'an Int'l",
    "coordinates": {
      "lat": 22.64650771478675,
      "long": 113.81585275108512
    }
  },
  "SDF": {
    "code": "SDF",
    "name": "Louisville Int'l",
    "coordinates": {
      "lat": 38.18602071526992,
      "long": -85.74170275973673
    }
  },
  "GVA": {
    "code": "GVA",
    "name": "Geneva",
    "coordinates": {
      "lat": 46.23100951015795,
      "long": 6.107945774236034
    }
  },
  "LYS": {
    "code": "LYS",
    "name": "Lyon-Saint Exupery",
    "coordinates": {
      "lat": 45.72101868346691,
      "long": 5.075944318134586
    }
  },
  "KIX": {
    "code": "KIX",
    "name": "Kansai Int'l",
    "coordinates": {
      "lat": 34.43479416292695,
      "long": 135.24445977247638
    }
  },
  "LIS": {
    "code": "LIS",
    "name": "Lisbon Portela",
    "coordinates": {
      "lat": 38.770762342751425,
      "long": -9.130694409310712
    }
  },
  "CNF": {
    "code": "CNF",
    "name": "Tancredo Neves Int'l",
    "coordinates": {
      "lat": -19.63278212187474,
      "long": -43.96358152099491
    }
  },
  "BMA": {
    "code": "BMA",
    "name": "Bromma",
    "coordinates": {
      "lat": 59.35559020651122,
      "long": 17.945617540614503
    }
  },
  "SUB": {
    "code": "SUB",
    "name": "Juanda Int'l",
    "coordinates": {
      "lat": -7.383578985275999,
      "long": 112.77703459493297
    }
  },
  "MDQ": {
    "code": "MDQ",
    "name": "Astor Piazzolla Int'l",
    "coordinates": {
      "lat": -37.93321612044816,
      "long": -57.581615093239215
    }
  },
  "GCM": {
    "code": "GCM",
    "name": "Owen Roberts Int'l",
    "coordinates": {
      "lat": 19.29591074371222,
      "long": -81.35767061622893
    }
  },
  "CGO": {
    "code": "CGO",
    "name": "Zhengzhou Xinzheng Int'l",
    "coordinates": {
      "lat": 34.52630271989567,
      "long": 113.84183130284451
    }
  },
  "DLC": {
    "code": "DLC",
    "name": "Dalian Zhoushuizi Int'l",
    "coordinates": {
      "lat": 38.96157023002216,
      "long": 121.53891378010117
    }
  },
  "HER": {
    "code": "HER",
    "name": "Heraklion Int'l",
    "coordinates": {
      "lat": 35.33690241010455,
      "long": 25.17405582432718
    }
  },
  "TBS": {
    "code": "TBS",
    "name": "Tbilisi Int'l",
    "coordinates": {
      "lat": 41.66944201872605,
      "long": 44.964614614166365
    }
  },
  "XXC": {
    "code": "XXC",
    "name": "Cascais",
    "coordinates": {
      "lat": 38.72353532083235,
      "long": -9.354582402639275
    }
  },
  "KHH": {
    "code": "KHH",
    "name": "Kaohsiung Int'l",
    "coordinates": {
      "lat": 22.57170610544221,
      "long": 120.34515634215063
    }
  },
  "SKO": {
    "code": "SKO",
    "name": "Sadiq Abubakar III",
    "coordinates": {
      "lat": 12.917482416618078,
      "long": 5.200226160326513
    }
  },
  "UIO": {
    "code": "UIO",
    "name": "Mariscal Sucre Int'l",
    "coordinates": {
      "lat": -0.145552408466882,
      "long": -78.48999255457005
    }
  },
  "KHI": {
    "code": "KHI",
    "name": "Karachi Civil",
    "coordinates": {
      "lat": 24.898524368959485,
      "long": 67.15212835929466
    }
  },
  "KIV": {
    "code": "KIV",
    "name": "Kishinev S.E.",
    "coordinates": {
      "lat": 46.93416199003912,
      "long": 28.93604875622555
    }
  },
  "LIM": {
    "code": "LIM",
    "name": "Jorge Chavez",
    "coordinates": {
      "lat": -12.0237161502221,
      "long": -77.10756569313422
    }
  },
  "YQT": {
    "code": "YQT",
    "name": "Thunder Bay Int'l",
    "coordinates": {
      "lat": 48.37188114925079,
      "long": -89.31214212381362
    }
  },
  "VNO": {
    "code": "VNO",
    "name": "Vilnius",
    "coordinates": {
      "lat": 54.64305493075424,
      "long": 25.28071644972846
    }
  },
  "XIY": {
    "code": "XIY",
    "name": "Hsien Yang",
    "coordinates": {
      "lat": 34.442939105442214,
      "long": 108.75581134215064
    }
  },
  "NTR": {
    "code": "NTR",
    "name": "Del Norte Int'l",
    "coordinates": {
      "lat": 25.859873767729045,
      "long": -100.2383941865767
    }
  },
  "TBU": {
    "code": "TBU",
    "name": "Fua'amotu Int'l",
    "coordinates": {
      "lat": -21.24861,
      "long": -175.135635
    }
  },
  "IFN": {
    "code": "IFN",
    "name": "Esfahan Int'l",
    "coordinates": {
      "lat": 32.74608053443211,
      "long": 51.87639168126809
    }
  },
  "HRE": {
    "code": "HRE",
    "name": "Harare Int'l",
    "coordinates": {
      "lat": -17.9228,
      "long": 31.1014
    }
  },
  "KWI": {
    "code": "KWI",
    "name": "Kuwait Int'l",
    "coordinates": {
      "lat": 29.239680058158292,
      "long": 47.97148255933165
    }
  },
  "YOW": {
    "code": "YOW",
    "name": "Macdonald-Cartier Int'l",
    "coordinates": {
      "lat": 45.3201348196531,
      "long": -75.66489338702053
    }
  },
  "KBL": {
    "code": "KBL",
    "name": "Kabul Int'l",
    "coordinates": {
      "lat": 34.56339788641491,
      "long": 69.21007362708741
    }
  },
  "ABJ": {
    "code": "ABJ",
    "name": "Abidjan Port Bouet",
    "coordinates": {
      "lat": 5.254398445149204,
      "long": -3.932219291676359
    }
  },
  "ACA": {
    "code": "ACA",
    "name": "General Juan N Alvarez Int'l",
    "coordinates": {
      "lat": 16.761967352779976,
      "long": -99.75450856196812
    }
  },
  "ACC": {
    "code": "ACC",
    "name": "Kotoka Int'l",
    "coordinates": {
      "lat": 5.606981523811933,
      "long": -0.171402855660817
    }
  },
  "ADD": {
    "code": "ADD",
    "name": "Bole Int'l",
    "coordinates": {
      "lat": 8.981730275810992,
      "long": 38.7931904366343
    }
  },
  "ADE": {
    "code": "ADE",
    "name": "Aden Int'l",
    "coordinates": {
      "lat": 12.8278,
      "long": 45.030602
    }
  },
  "ADL": {
    "code": "ADL",
    "name": "Adelaide Int'l",
    "coordinates": {
      "lat": -34.9405860275154,
      "long": 138.5321014576991
    }
  },
  "ALA": {
    "code": "ALA",
    "name": "Almaty Int'l",
    "coordinates": {
      "lat": 43.34649431447929,
      "long": 77.01204587711747
    }
  },
  "ALG": {
    "code": "ALG",
    "name": "Houari Boumediene",
    "coordinates": {
      "lat": 36.69972066635346,
      "long": 3.212073535165055
    }
  },
  "ALP": {
    "code": "ALP",
    "name": "Aleppo Int'l",
    "coordinates": {
      "lat": 36.18462373143136,
      "long": 37.22734140578282
    }
  },
  "AMD": {
    "code": "AMD",
    "name": "Sardar Vallabhbhai Patel Int'l",
    "coordinates": {
      "lat": 23.070745463588118,
      "long": 72.62090008843316
    }
  },